{
  "type": "FeatureCollection",
  "features": [
    {
      "type": "Feature",
      "geometry": {
        "type": "Point",
        "coordinates": [
          -121.470320,
          38.552480
        ]
      },
      "properties": {
        "title": "Sacramento County",
        "website": "http://www.foodlink.org/",
        "address": "3333 3rd Ave.",
        "address2": "Sacramento",
        "phone": "(916) 456-1980"
      }
    },
    {
      "type": "Feature",
      "geometry": {
        "type": "Point",
        "coordinates": [
          -121.367640,
          38.537810
        ]
      },
      "properties": {
        "title": "Elevation Holy Cross",
        "website": "http://www.holycrosssacramento.com",
        "address": "9000 Jackson Rd",
        "address2": "Sacramento, CA - 95826",
        "phone": "(916) 364-8068"
      }
    },
    {
      "type": "Feature",
      "geometry": {
        "type": "Point",
        "coordinates": [
          -121.473390,
          38.564890
        ]
      },
      "properties": {
        "title": "River City Food Bank",
        "website": "http://www.rivercityfoodbank.org",
        "address": "1800 28th Street",
        "address2": "Sacramento, CA - 95816",
        "phone": "(916) 446-2627"
      }
    },
    {
      "type": "Feature",
      "geometry": {
        "type": "Point",
        "coordinates": [
          -121.547690,
          38.578580
        ]
      },
      "properties": {
        "title": "Proverbs House International",
        "website": "http://www.proverbshouse.org",
        "address": "813 Harbor Blvd",
        "address2": "West Sacramento, CA - 95691",
        "phone": "(916) 589-0475"
      }
    },
    {
      "type": "Feature",
      "geometry": {
        "type": "Point",
        "coordinates": [
          -121.354320,
          38.546730
        ]
      },
      "properties": {
        "title": "Atonement Lutheran Church Food Pantry",
        "website": "http://atonementlutheranchurch.org/",
        "address": "9242 Kiefer Blvd",
        "address2": "Rosemont, CA - 95826",
        "phone": "(916) 362-3738"
      }
    },
    {
      "type": "Feature",
      "geometry": {
        "type": "Point",
        "coordinates": [
          -121.332820,
          38.619900
        ]
      },
      "properties": {
        "title": "Carmichael Food Closet",
        "website": "http://www.carmichaelpres.org",
        "address": "5645 Marconi Ave",
        "address2": "Carmichael, CA - 95608",
        "phone": "(916) 483-9232"
      }
    },
    {
      "type": "Feature",
      "geometry": {
        "type": "Point",
        "coordinates": [
          -121.357540,
          38.400700
        ]
      },
      "properties": {
        "title": "Elk Grove Food Bank",
        "website": "http://www.elkgrovefoodbank.org",
        "address": "9820 Dino Drive, Suite #140",
        "address2": "Elk Grove, CA - 95624",
        "phone": "(916) 685-8453"
      }
    },
    {
      "type": "Feature",
      "geometry": {
        "type": "Point",
        "coordinates": [
          -121.293530,
          38.672750
        ]
      },
      "properties": {
        "title": "Sunrise Christian Food Ministries",
        "website": "http://sunrisechristianfoodministry.org",
        "address": "5901 San Juan Ave",
        "address2": "Citrus Heights, CA - 95610",
        "phone": "(916) 965-5431"
      }
    },
    {
      "type": "Feature",
      "geometry": {
        "type": "Point",
        "coordinates": [
          -117.738136,
          33.661809
        ]
      },
      "properties": {
        "title": "Second Harvest Food Bank of Orange County",
        "address": "8014 Marine Way",
        "address2": "Irvine",
        "website": "http://feedoc.org/",
        "phone": "949-653-2900"
      }
    },
    {
      "type": "Feature",
      "geometry": {
        "type": "Point",
        "coordinates": [
          -120.95432,
          38.647617
        ]
      },
      "properties": {
        "title": "Food Bank of El Dorado County",
        "address": "4550 Business Drive",
        "address2": "Cameron Park",
        "website": "http://foodbankedc.org/",
        "phone": "530-621-9950"
      }
    },
    {
      "type": "Feature",
      "geometry": {
        "type": "Point",
        "coordinates": [
          -118.00508,
          33.789944
        ]
      },
      "properties": {
        "title": "Community Action Partnership of Orange County",
        "address": "11870 Monarch Street",
        "website": "http://ocfoodbank.org/",
        "phone": "714-897-6670"
      }
    },
    {
      "type": "Feature",
      "geometry": {
        "type": "Point",
        "coordinates": [
          -120.95432,
          38.647617
        ]
      },
      "properties": {
        "title": "Food Bank of El Dorado County",
        "address": "4550 Business Drive",
        "address2": "Cameron Park",
        "website": "http://foodbankedc.org/",
        "phone": "530-621-9950"
      }
    },
    {
      "type": "Feature",
      "geometry": {
        "type": "Point",
        "coordinates": [
          -121.304092,
          38.784703
        ]
      },
      "properties": {
        "title": "Placer Food Bank",
        "address": "8284 Industrial Avenue",
        "address2": "Roseville",
        "website": "http://placerfoodbank.org/",
        "phone": "916-783-0481"
      }
    },
    {
      "type": "Feature",
      "geometry": {
        "type": "Point",
        "coordinates": [
          -121.566375,
          39.494616
        ]
      },
      "properties": {
        "title": "Community Action Agency of Butte County",
        "address": "2640 S. Fifth Avenue, Suite 7",
        "address2": "Oroville",
        "website": "http://www.buttecaa.com/menus/food-nutrition.html",
        "phone": "530-538-7559"
      }
    },
    {
      "type": "Feature",
      "geometry": {
        "type": "Point",
        "coordinates": [
          -120.677771,
          38.179124
        ]
      },
      "properties": {
        "title": "Resource Connection",
        "address": "206 George Reed Drive",
        "address2": "San Andreas",
        "website": "http://www.trcac.org/index.php",
        "phone": "209-754-1257"
      }
    },
    {
      "type": "Feature",
      "geometry": {
        "type": "Point",
        "coordinates": [
          -121.40013,
          36.872926
        ]
      },
      "properties": {
        "title": "The Community Food Bank of San Benito County",
        "address": "1133 San Felipe Road",
        "address2": "Hollister",
        "website": "http://communityfoodbankofsbc.org/",
        "phone": "831-637-0340"
      }
    },
    {
      "type": "Feature",
      "geometry": {
        "type": "Point",
        "coordinates": [
          -117.40724,
          33.92534
        ]
      },
      "properties": {
        "title": "Second Harvest Food Bank",
        "address": "2950-B Jefferson Street",
        "address2": "Riverside",
        "phone": "951-359-4757"
      }
    },
    {
      "type": "Feature",
      "geometry": {
        "type": "Point",
        "coordinates": [
          -117.260563,
          34.088196
        ]
      },
      "properties": {
        "title": "Community Action Partnership of San Bernardino County",
        "address": "696 S. Tippecanoe Avenue",
        "address2": "San Bernardino",
        "website": "http://www.sbcounty.gov/capsbc/",
        "phone": "909-723-1500"
      }
    },
    {
      "type": "Feature",
      "geometry": {
        "type": "Point",
        "coordinates": [
          -122.046523,
          38.006119
        ]
      },
      "properties": {
        "title": "Food Bank of Contra Costa & Solano",
        "address": "4010 Nelson Avenue",
        "address2": "Concord",
        "website": "http://www.foodbankccs.org/",
        "phone": "925-676-7543"
      }
    },
    {
      "type": "Feature",
      "geometry": {
        "type": "Point",
        "coordinates": [
          -120.79995,
          38.37753
        ]
      },
      "properties": {
        "title": "Interfaith Council of Amador County",
        "address": "12181 Airport Road",
        "address2": "Jackson",
        "website": "http://www.feedamador.org/site/pages/home.cgi",
        "phone": "209-267-9006"
      }
    },
    {
      "type": "Feature",
      "geometry": {
        "type": "Point",
        "coordinates": [
          -122.046523,
          38.006119
        ]
      },
      "properties": {
        "title": "Food Bank of Contra Costa & Solano",
        "address": "4010 Nelson Avenue",
        "address2": "Concord",
        "website": "http://www.foodbankccs.org/",
        "phone": "925-676-7543"
      }
    },
    {
      "type": "Feature",
      "geometry": {
        "type": "Point",
        "coordinates": [
          -117.164232,
          32.887
        ]
      },
      "properties": {
        "title": "San Diego Food Bank",
        "address": "9850 Distribution Avenue",
        "address2": "San Diego",
        "website": "http://sandiegofoodbank.org/",
        "phone": "858-527-1419"
      }
    },
    {
      "type": "Feature",
      "geometry": {
        "type": "Point",
        "coordinates": [
          -124.192643,
          41.754594
        ]
      },
      "properties": {
        "title": "Rural Human Services, Inc.",
        "address": "286 M Street Suite A",
        "address2": "Crescent City",
        "website": "http://www.ruralhumanservices.org/",
        "phone": "707-464-7441"
      }
    },
    {
      "type": "Feature",
      "geometry": {
        "type": "Point",
        "coordinates": [
          -119.757371,
          36.693648
        ]
      },
      "properties": {
        "title": "Central California Food Bank",
        "address": "4010 E Amendola Dr",
        "address2": "Fresno",
        "website": "http://www.communityfoodbank.net/",
        "phone": "559-237-3663"
      }
    },
    {
      "type": "Feature",
      "geometry": {
        "type": "Point",
        "coordinates": [
          -121.253196,
          37.988468
        ]
      },
      "properties": {
        "title": "San Joaquin County Human Services Agency",
        "address": "2736 North Teepee Dr, Suite C",
        "address2": "Stockton",
        "phone": "209-468-0982"
      }
    },
    {
      "type": "Feature",
      "geometry": {
        "type": "Point",
        "coordinates": [
          -124.174334,
          40.793788
        ]
      },
      "properties": {
        "title": "Food For People, Inc.",
        "address": "307 West 14th Street",
        "address2": "Eureka",
        "website": "http://www.foodforpeople.org/",
        "phone": "707-445-3166"
      }
    },
    {
      "type": "Feature",
      "geometry": {
        "type": "Point",
        "coordinates": [
          -120.631027,
          35.237987
        ]
      },
      "properties": {
        "title": "Food Bank Coalition of San Luis Obispo County",
        "address": "1180 Kendall Rd",
        "address2": "San Luis Obispo",
        "website": "http://www.slofoodbank.org/",
        "phone": "805-238-4664"
      }
    },
    {
      "type": "Feature",
      "geometry": {
        "type": "Point",
        "coordinates": [
          -119.777464,
          34.439298
        ]
      },
      "properties": {
        "title": "Food Bank of Santa Barbara",
        "address": "4554 Hollister",
        "address2": "Santa Barbara",
        "website": "http://www.foodbanksbc.org/",
        "phone": "805-967-5741"
      }
    },
    {
      "type": "Feature",
      "geometry": {
        "type": "Point",
        "coordinates": [
          -118.394155,
          37.358904
        ]
      },
      "properties": {
        "title": "Inyo/Mono Advocates For Community Action",
        "address": "137 East South Street",
        "address2": "Bishop",
        "website": "http://imaca.net/",
        "phone": "760-873-8557"
      }
    },
    {
      "type": "Feature",
      "geometry": {
        "type": "Point",
        "coordinates": [
          -115.56338,
          32.74814
        ]
      },
      "properties": {
        "title": "Imperial Valley Food Bank",
        "address": "329 Applestill Road",
        "address2": "El Centro",
        "website": "http://www.ivfoodbank.com/",
        "phone": "760-370-0966"
      }
    },
    {
      "type": "Feature",
      "geometry": {
        "type": "Point",
        "coordinates": [
          -118.394155,
          37.358904
        ]
      },
      "properties": {
        "title": "Inyo/Mono Advocates For Community Action",
        "address": "137 East South Street",
        "address2": "Bishop",
        "website": "http://imaca.net/",
        "phone": "760-873-8557"
      }
    },
    {
      "type": "Feature",
      "geometry": {
        "type": "Point",
        "coordinates": [
          -122.327267,
          40.615623
        ]
      },
      "properties": {
        "title": "Dignity Health Connected Living",
        "address": "100 Mercy Oaks Drive",
        "address2": "Redding",
        "website": "http://ssnpweb.org/",
        "phone": "530-226-3060"
      }
    },
    {
      "type": "Feature",
      "geometry": {
        "type": "Point",
        "coordinates": [
          -121.877004,
          37.291756
        ]
      },
      "properties": {
        "title": "Second Harvest Food Bank of Silicon Valley",
        "address": "750 Curtner Avenue",
        "address2": "San Jose",
        "website": "http://www.shfb.org/",
        "phone": "408-266-8866"
      }
    },
    {
      "type": "Feature",
      "geometry": {
        "type": "Point",
        "coordinates": [
          -121.77314,
          36.902659
        ]
      },
      "properties": {
        "title": "Second Harvest Food Bank Serving Santa Cruz",
        "address": "800 Ohlone Parkway",
        "address2": "Watsonville",
        "website": "http://www.thefoodbank.org/",
        "phone": "831-722-7110"
      }
    },
    {
      "type": "Feature",
      "geometry": {
        "type": "Point",
        "coordinates": [
          -119.057937,
          35.360807
        ]
      },
      "properties": {
        "title": "Community Action Partnership of Kern",
        "address": "5005 Business Park N",
        "address2": "Bakersfield",
        "website": "http://www.capk.org/",
        "phone": "661-336-5236"
      }
    },
    {
      "type": "Feature",
      "geometry": {
        "type": "Point",
        "coordinates": [
          -119.655538,
          36.336584
        ]
      },
      "properties": {
        "title": "Kings County Community Action Organization",
        "address": "1130 North 11th Avenue",
        "address2": "Hanford",
        "website": "http://www.kcao.org/",
        "phone": "559-582-4386"
      }
    },
    {
      "type": "Feature",
      "geometry": {
        "type": "Point",
        "coordinates": [
          -122.875723,
          39.003848
        ]
      },
      "properties": {
        "title": "Clearlake Gleaners, Inc.",
        "address": "1896 Big Valley Road",
        "address2": "Finley",
        "phone": "707-263-8082"
      }
    },
    {
      "type": "Feature",
      "geometry": {
        "type": "Point",
        "coordinates": [
          -122.381386,
          41.421404
        ]
      },
      "properties": {
        "title": "Great Northern Corporation",
        "address": "310 Boles Street",
        "address2": "Weed",
        "phone": "530-938-4115"
      }
    },
    {
      "type": "Feature",
      "geometry": {
        "type": "Point",
        "coordinates": [
          -120.073737,
          36.950605
        ]
      },
      "properties": {
        "title": "Madera County Food Bank",
        "address": "225 South Pine Street, Suite 101",
        "address2": "Madera",
        "website": "http://maderafoodbank.com/",
        "phone": "559-674-1482"
      }
    },
    {
      "type": "Feature",
      "geometry": {
        "type": "Point",
        "coordinates": [
          -122.792572,
          38.514032
        ]
      },
      "properties": {
        "title": "Redwood Empire Food Bank",
        "address": "3990 Brickway Blvd.",
        "address2": "Santa Rosa",
        "website": "http://www.refb.org/",
        "phone": "707-523-7900"
      }
    },
    {
      "type": "Feature",
      "geometry": {
        "type": "Point",
        "coordinates": [
          -120.503759,
          37.31834
        ]
      },
      "properties": {
        "title": "Merced County Food Bank, Inc",
        "address": "2000 West Olive",
        "address2": "Merced",
        "website": "http://www.mercedcountyfoodbank.org/",
        "phone": "209-726-3663"
      }
    },
    {
      "type": "Feature",
      "geometry": {
        "type": "Point",
        "coordinates": [
          -120.503759,
          37.31834
        ]
      },
      "properties": {
        "title": "Merced County Food Bank, Inc",
        "address": "2000 West Olive",
        "address2": "Merced",
        "website": "http://www.mercedcountyfoodbank.org/",
        "phone": "209-726-3663"
      }
    },
    {
      "type": "Feature",
      "geometry": {
        "type": "Point",
        "coordinates": [
          -121.628163,
          39.1368
        ]
      },
      "properties": {
        "title": "Yuba/Sutter Gleaners Food Bank, Inc.",
        "address": "760 Stafford Way",
        "address2": "Yuba City",
        "phone": "530-673-3834"
      }
    },
    {
      "type": "Feature",
      "geometry": {
        "type": "Point",
        "coordinates": [
          -121.628163,
          39.1368
        ]
      },
      "properties": {
        "title": "Yuba/Sutter Gleaners Food Bank, Inc.",
        "address": "760 Stafford Way",
        "address2": "Yuba City",
        "phone": "530-673-3834"
      }
    },
    {
      "type": "Feature",
      "geometry": {
        "type": "Point",
        "coordinates": [
          -122.53237,
          38.07055
        ]
      },
      "properties": {
        "title": "SF-Marin Food Bank",
        "address": "75 Digital Drive",
        "address2": "Novato",
        "website": "http://www.sfmfoodbank.org/",
        "phone": "415-883-1302"
      }
    },
    {
      "type": "Feature",
      "geometry": {
        "type": "Point",
        "coordinates": [
          -120.99011,
          37.62137
        ]
      },
      "properties": {
        "title": "Salvation Army Modesto Citadel",
        "address": "600 Janopaul Way",
        "address2": "Modesto",
        "phone": "209-522-3209"
      }
    },
    {
      "type": "Feature",
      "geometry": {
        "type": "Point",
        "coordinates": [
          -123.804128,
          39.452167
        ]
      },
      "properties": {
        "title": "Mendocino Food and Nutrition Program, Inc.",
        "address": "910 North Franklin",
        "address2": "Fort Bragg",
        "website": "http://www.fortbraggfoodbank.org/home",
        "phone": "707-964-9404"
      }
    },
    {
      "type": "Feature",
      "geometry": {
        "type": "Point",
        "coordinates": [
          -117.047546,
          34.004257
        ]
      },
      "properties": {
        "title": "Trinity County Food Assistance Program",
        "address": "9069 3rd Street",
        "address2": "Weaverville",
        "phone": "530-623-5409"
      }
    },
    {
      "type": "Feature",
      "geometry": {
        "type": "Point",
        "coordinates": [
          -119.13047,
          36.290219
        ]
      },
      "properties": {
        "title": "Foodlink for Tulare County",
        "address": "611 2nd St",
        "address2": "Exeter",
        "website": "http://www.foodlinktc.org/",
        "phone": "559-651-3663"
      }
    },
    {
      "type": "Feature",
      "geometry": {
        "type": "Point",
        "coordinates": [
          -122.305775,
          38.287593
        ]
      },
      "properties": {
        "title": "Community Action of Napa Valley",
        "address": "2521 Old Sonoma Rd",
        "address2": "Napa",
        "website": "http://canv.org/",
        "phone": "707-253-6100"
      }
    },
    {
      "type": "Feature",
      "geometry": {
        "type": "Point",
        "coordinates": [
          -121.665444,
          36.683752
        ]
      },
      "properties": {
        "title": "Food Bank for Monterey County",
        "address": "353 W Rossi St",
        "address2": "Salinas",
        "website": "http://www.foodbankformontereycounty.org/",
        "phone": "831-758-1523"
      }
    },
    {
      "type": "Feature",
      "geometry": {
        "type": "Point",
        "coordinates": [
          -122.26824,
          40.16852
        ]
      },
      "properties": {
        "title": "Tehama County Gleaners",
        "address": "20699 Walnut Street",
        "address2": "Red Bluff",
        "phone": "530-529-2264"
      }
    },
    {
      "type": "Feature",
      "geometry": {
        "type": "Point",
        "coordinates": [
          -120.831795,
          38.354705
        ]
      },
      "properties": {
        "title": "Amador/Tuolumne Community Action Agency, Inc.",
        "address": "10590 State Hwy 88",
        "address2": "Jackson",
        "website": "http://atcaa.org/atcaa-programs/food-bank/",
        "phone": "209-223-1485"
      }
    },
    {
      "type": "Feature",
      "geometry": {
        "type": "Point",
        "coordinates": [
          -121.759904,
          38.688702
        ]
      },
      "properties": {
        "title": "Food Bank of Yolo County",
        "address": "233 Harter Ave",
        "address2": "Woodland",
        "website": "http://www.yolofoodbank.org/",
        "phone": "530-668-0690"
      }
    },
    {
      "type": "Feature",
      "geometry": {
        "type": "Point",
        "coordinates": [
          -119.1615,
          34.25539
        ]
      },
      "properties": {
        "title": "Food Share Inc. of Ventura County",
        "address": "4156 North Southbank Road",
        "address2": "Oxnard",
        "website": "http://www.foodshare.com/",
        "phone": "805-983-7100"
      }
    },
    {
      "type": "Feature",
      "geometry": {
        "type": "Point",
        "coordinates": [
          -122.103358,
          37.670511
        ]
      },
      "properties": {
        "title": "Hope for the Heart",
        "website": "http://foodnow.net/location/hope-for-the-heart/",
        "address": "22035 Meekland Ave",
        "address2": "Hayward, CA 94544",
        "phone": "",
        "description": "<p><em>Serves all of Alameda County residents. </em> NEW CLIENTS must have some form of ID for every household member and proof of address.</p>\n<h3><strong>Tuesday &#8211; Thursday: 11am-12pm   AND 3rd Saturday: 7:30am</strong></h3>\n<p>&nbsp;</p>\n<p>&nbsp;</p>\n<p>Please bring your own bags or cart.</p>\n<h6><em>last update 2/7/2019 </em></h6>\n"
      }
    },
    {
      "type": "Feature",
      "geometry": {
        "type": "Point",
        "coordinates": [
          -122.102793,
          37.669971
        ]
      },
      "properties": {
        "title": "Hayward Spanish Seventh Day Adventist Church",
        "website": "http://foodnow.net/location/hayward-spanish-seventh-day-adventist-church/",
        "address": "22117 Meekland Ave",
        "address2": "Hayward, CA 94541",
        "phone": "",
        "description": "<p>First come, first served or until food runs out<br />\nEvery Wednesday<br />\n1:30pm<br />\nTo register, must have some form of ID &amp; proof of address. Arrive earlier to receive a number card. Numbers are distributed at 11am.</p>\n"
      }
    },
    {
      "type": "Feature",
      "geometry": {
        "type": "Point",
        "coordinates": [
          -122.093669,
          37.681061
        ]
      },
      "properties": {
        "title": "Eden United Church / Food for Cherryland",
        "website": "http://foodnow.net/location/eden-united-church-food-for-cherryland/",
        "address": "21455 Birch St",
        "address2": "Hayward, CA 94541",
        "phone": "",
        "description": "<p>First come, first served</p>\n<p>2nd &amp; 4th Wednesday each month<br />\n1:30pm &#8211; 4:30pm  <em>(pantry located in Oliver Hall)</em></p>\n<p>**Please have your own bags or cart</p>\n"
      }
    },
    {
      "type": "Feature",
      "geometry": {
        "type": "Point",
        "coordinates": [
          -122.096588,
          37.682969
        ]
      },
      "properties": {
        "title": "New Birth Christian Ministries",
        "website": "http://foodnow.net/location/new-birth-christian-ministries/",
        "address": "22100 Princeton St",
        "address2": "Hayward, CA 94544",
        "phone": "",
        "description": "<p>First come, first served</p>\n<h2>2nd &amp; 4th Saturday; 9am &#8211; 12:30pm</h2>\n<h2>every Tuesday; 10:30am &#8211; 12pm</h2>\n<p>Please bring your own bags. Must have some form of ID.</p>\n"
      }
    },
    {
      "type": "Feature",
      "geometry": {
        "type": "Point",
        "coordinates": [
          -122.117023,
          37.683503
        ]
      },
      "properties": {
        "title": "Colonial Acres Elementary &#8211; Mobile Pantry (MoPa)",
        "website": "http://foodnow.net/location/colonial-acres-elementary-mobile-pantry-mopa/",
        "address": "17115 Meekland Avenue",
        "address2": "Hayward, CA 94541",
        "phone": "",
        "description": "<h3>ACCFB&#8217;s Mobile Food Pantry</h3>\n<p>4th Wednesday of each month<br />\n1pm &#8211; 2pm</p>\n<p>&nbsp;</p>\n<p>1st Come, 1st Served.</p>\n<p>Please bring your own bag or cart. Arrive at least 30 minutes before start of distribution.</p>\n<p>&nbsp;</p>\n<p>**Truck parks on playground</p>\n<p>&nbsp;</p>\n<h5>NOTE: November &amp; December dates TBD</h5>\n"
      }
    },
    {
      "type": "Feature",
      "geometry": {
        "type": "Point",
        "coordinates": [
          -122.109428,
          37.658554
        ]
      },
      "properties": {
        "title": "Longwood Elementary &#8211; MOPA",
        "website": "http://foodnow.net/location/longwood-elementary-mopa/",
        "address": "850 Longwood Ave",
        "address2": "Hayward, CA 94541",
        "phone": "",
        "description": "<p>First come, first served or until food runs out</p>\n<p>3rd Wednesday of each month</p>\n<p>1:15pm to 2:15pm</p>\n<p>Closed: July, August, September</p>\n<p>Bring your own bag or cart</p>\n"
      }
    },
    {
      "type": "Feature",
      "geometry": {
        "type": "Point",
        "coordinates": [
          -122.09342,
          37.693217
        ]
      },
      "properties": {
        "title": "Crossstreets Neighborhood Services",
        "website": "http://foodnow.net/location/crossstreets-neighborhood-services/",
        "address": "20600 John Dr.",
        "address2": "Castro Valley, CA 94546",
        "phone": "",
        "description": "<h2><strong>2nd and 4th Saturday of each month: 9:30am</strong></h2>\n<p><em>(except November &amp; December)</em></p>\n<p>&nbsp;</p>\n<p>New clients must register on 1st visit (fill out a small intake form). Please bring the following:</p>\n<ul>\n<li>Some for of I.D.</li>\n<li>Proof of address (must be within the last 30 days)</li>\n</ul>\n<p>Please arrive by 9am to receive a random number, distribution will start promptly at 9:30am.</p>\n<p>&nbsp;</p>\n<p>****please bring your own bags or cart****</p>\n<h6></h6>\n<h6><em>last update 2/8/2019</em></h6>\n"
      }
    },
    {
      "type": "Feature",
      "geometry": {
        "type": "Point",
        "coordinates": [
          -122.113914,
          37.691578
        ]
      },
      "properties": {
        "title": "Prophetic Teacher Intercessory Church",
        "website": "http://foodnow.net/location/prophetic-teacher-intercessory-church/",
        "address": "16490 Kent Ave",
        "address2": "San Lorenzo, CA 94580",
        "phone": "",
        "description": "<p>First come, first served or until food runs out\t<br />\n1st Saturday \t<br />\n8am &#8211; 11am<br />\nArrive at least 30 minutes before distribution.</p>\n"
      }
    },
    {
      "type": "Feature",
      "geometry": {
        "type": "Point",
        "coordinates": [
          -122.112994,
          37.693031
        ]
      },
      "properties": {
        "title": "Ashland Village &#8211; Mobile Pantry",
        "website": "http://foodnow.net/location/ashland-village-mobile-pantry/",
        "address": "1300 Kentwood Lane",
        "address2": "San Leandro, CA 94578",
        "phone": "",
        "description": "<h5>ACCFB&#8217;s Mobile Pantry (MoPa)</h5>\n<p>First come, first served or until food runs out</p>\n<p>3rd Tuesday of each month</p>\n<p>2:00 &#8211; 4:00pm</p>\n<p>Bring your own bag or cart</p>\n<p>**At the corner of 165th Ave &amp; E.14th St<br />\nTruck parks inside of apartment complex.</p>\n<p>Must go inside, can park along side E.14th St</p>\n"
      }
    },
    {
      "type": "Feature",
      "geometry": {
        "type": "Point",
        "coordinates": [
          -122.083413,
          37.65658
        ]
      },
      "properties": {
        "title": "HPN &#8211; FRC MOPA",
        "website": "http://foodnow.net/location/hpn-frc-mopa/",
        "address": "24823 Soto Rd",
        "address2": "Hayward, CA 94544",
        "phone": "",
        "description": "<p>First come, first served or until food runs out</p>\n<p>4th Thursday of each month</p>\n<p>11am &#8211; 12pm</p>\n<p>Bring your own bag or cart</p>\n<p>&nbsp;</p>\n<h5><strong><em>*Distribution held  in the parking lot </em></strong></h5>\n"
      }
    },
    {
      "type": "Feature",
      "geometry": {
        "type": "Point",
        "coordinates": [
          -122.084643,
          37.648467
        ]
      },
      "properties": {
        "title": "HPN &#8211; HARD MOPA",
        "website": "http://foodnow.net/location/hpn-hard-mopa/",
        "address": "25625 Cypress Ave",
        "address2": "Hayward, CA 94544",
        "phone": "",
        "description": "<p>First come, first served or until food runs out</p>\n<p>2nd Monday of each month</p>\n<p>2pm &#8211; 4pm</p>\n<p>Bring your own bag or cart</p>\n<p>&nbsp;</p>\n<h5><strong><em>*Distribution held inside of park, Eden Greenway Park</em></strong></h5>\n"
      }
    },
    {
      "type": "Feature",
      "geometry": {
        "type": "Point",
        "coordinates": [
          -122.073082,
          37.699346
        ]
      },
      "properties": {
        "title": "Faith Lutheran Church",
        "website": "http://foodnow.net/location/faith-lutheran-church/",
        "address": "20080 Redwood Road",
        "address2": "Castro Valley, CA 94552",
        "phone": "",
        "description": "<p>First come, first served or until food runs out\t<br />\nEvery Thursday \t<br />\n7:00pm</p>\n"
      }
    },
    {
      "type": "Feature",
      "geometry": {
        "type": "Point",
        "coordinates": [
          -122.106911,
          37.639805
        ]
      },
      "properties": {
        "title": "Chabott College &#8211; Food Pantry",
        "website": "http://foodnow.net/location/chabott-college-food-pantry/",
        "address": "25555 Hesperian Blvd",
        "address2": "Hayward, CA 94545",
        "phone": "",
        "description": "<h1>3/26/2019: CLOSED, due to Spring Break</h1>\n<p>&nbsp;</p>\n<h3>On Campus food distribution</h3>\n<p>2nd Wednesday of each month: 10am &#8211; 4pm</p>\n<p>4th Tuesday of each month: 10am &#8211; 4pm</p>\n<p>&nbsp;</p>\n<p>1st Come, 1st Served.</p>\n<p>Please bring your own bags or cart.</p>\n<p>&nbsp;</p>\n<p>**Pantry located by cafeteria, in front of building 2300</p>\n<p>&nbsp;</p>\n<h5>CLOSED: July, August</h5>\n"
      }
    },
    {
      "type": "Feature",
      "geometry": {
        "type": "Point",
        "coordinates": [
          -122.054536,
          37.683686
        ]
      },
      "properties": {
        "title": "Christ Centered Missionary Baptist Church",
        "website": "http://foodnow.net/location/christ-centered-missionary-baptist-church/",
        "address": "22979 Maud Ave",
        "address2": "Hayward, CA 94541",
        "phone": "",
        "description": "<p>First come, first served</p>\n<p>2nd &amp; 4th Saturday<br />\n11am &#8211; 2pm</p>\n<p>Do not arrive earlier than 11am. Must bring a form of ID and your own bags.</p>\n"
      }
    },
    {
      "type": "Feature",
      "geometry": {
        "type": "Point",
        "coordinates": [
          -122.052735,
          37.680495
        ]
      },
      "properties": {
        "title": "Fairview Elementary School &#8211; Mobile Pantry (MoPa)",
        "website": "http://foodnow.net/location/fairview-elementary-school/",
        "address": "23515 Maud Ave",
        "address2": "Hayward, CA 94541",
        "phone": "",
        "description": "<h3>ACCFB&#8217;s Mobile Food Pantry</h3>\n<p>&nbsp;</p>\n<p>FULL distribution: 1st Wednesday of each month<br />\n12:45 &#8211; 1:45pm</p>\n<p>PRODUCE distribution:  3rd Wednesday of each month<br />\n12:45pm &#8211; 1:45pm</p>\n<p>&nbsp;</p>\n<p>Please bring your own bags or cart</p>\n<p>**Truck parks inside of school</p>\n<p>&nbsp;</p>\n<h5>CLOSED: July</h5>\n"
      }
    },
    {
      "type": "Feature",
      "geometry": {
        "type": "Point",
        "coordinates": [
          -122.060618,
          37.69715
        ]
      },
      "properties": {
        "title": "Resurrection Greek  Orthodox Church &#8211; Food Pantry",
        "website": "http://foodnow.net/location/resurrection-greek-orthodox-church-food-pantry/",
        "address": "20104 Center St",
        "address2": "Castro Valley, CA 94546",
        "phone": "",
        "description": "<h2>2nd &amp; 4th Saturday<strong>: 9am – 10am</strong></h2>\n<p>&nbsp;</p>\n<p>First come, First Served</p>\n<p>****please bring your own bags or cart****</p>\n<h6><em>last update 2/28/2019</em></h6>\n"
      }
    },
    {
      "type": "Feature",
      "geometry": {
        "type": "Point",
        "coordinates": [
          -122.079947,
          37.633828
        ]
      },
      "properties": {
        "title": "South Hayward Parish",
        "website": "http://foodnow.net/location/south-hayward-parish/",
        "address": "27287 Patrick Ave",
        "address2": "Hayward, CA 94544",
        "phone": "",
        "description": "<p><em>Serves Hayward, Union City or Castro Valley residents.  </em></p>\n<h3></h3>\n<h3>Tuesday – Friday: 2:30pm &#8211; 5pm</h3>\n<p>If new client, please arrive by 2pm to register. Bring some form of ID for each household member and proof of address. Clients can pick up 1x per week.</p>\n<p>&nbsp;</p>\n<p>**Please bring your own bags or cart**</p>\n<h6><em>last update 2/7/2019 </em></h6>\n"
      }
    },
    {
      "type": "Feature",
      "geometry": {
        "type": "Point",
        "coordinates": [
          -122.13725,
          37.712607
        ]
      },
      "properties": {
        "title": "Bethel Community Presbyterian Church",
        "website": "http://foodnow.net/location/bethel-community-presbyterian-church/",
        "address": "14235 Bancroft Ave",
        "address2": "San Leandro, CA 94578",
        "phone": "",
        "description": "<p>First come, first served</p>\n<p>Every Thursday: 6:00 &#8211; 8:00pm</p>\n<p>Limit to 2x per month once registered.  Please bring your own bags or cart.</p>\n<p>&nbsp;</p>\n<p>To register:</p>\n<ul>\n<li>Any form of ID</li>\n<li>Proof of Address (within the last 30 days)</li>\n</ul>\n"
      }
    },
    {
      "type": "Feature",
      "geometry": {
        "type": "Point",
        "coordinates": [
          -122.153346,
          37.704881
        ]
      },
      "properties": {
        "title": "Davis Street Community Center",
        "website": "http://foodnow.net/location/davis-street-community-center/",
        "address": "3081 Teagarden St",
        "address2": "San Leandro, CA 94578",
        "phone": "",
        "description": "<p><em>Serves San Leandro, San Lorenzo or Hayward residents </em></p>\n<h3>Monday – Friday: 12pm-5pm</h3>\n<p>Can pick up food 2x per month.  The 1st – 15th AND 16th – 31st of the month</p>\n<p>If new client, to register please take the following (arrive no later than 4pm):</p>\n<ul>\n<li>any form of ID for every person in household (including children)</li>\n<li>proof of address (within the past 30 days)</li>\n<li>Must be a resident of San Leandro, San Lorenzo or Hayward</li>\n</ul>\n<p>**Please bring your own bags or cart</p>\n<p>&nbsp;</p>\n<h6><em>last update 2/7/2019 </em></h6>\n"
      }
    },
    {
      "type": "Feature",
      "geometry": {
        "type": "Point",
        "coordinates": [
          -122.143072,
          37.717382
        ]
      },
      "properties": {
        "title": "SLUSD Mobile Pantry at San Leandro Adult School",
        "website": "http://foodnow.net/location/slusd-mobile-pantry-at-barbara-lee-health-center/",
        "address": "1448 Williams St",
        "address2": "San Leandro, CA 94578",
        "phone": "",
        "description": "<h3>ACCFB&#8217;s Mobile Food Pantry (MoPa)</h3>\n<p>1st Friday of each month</p>\n<p>1pm &#8211; 3pm</p>\n<p>&nbsp;</p>\n<p>Bring your own bag or cart</p>\n<p>**truck parks in parking lot</p>\n<p>&nbsp;</p>\n<h6><strong> </strong></h6>\n<p>&nbsp;</p>\n<p>&nbsp;</p>\n<p>&nbsp;</p>\n<p>&nbsp;</p>\n<p>&nbsp;</p>\n"
      }
    },
    {
      "type": "Feature",
      "geometry": {
        "type": "Point",
        "coordinates": [
          -122.147683,
          37.736054
        ]
      },
      "properties": {
        "title": "All Saints Episcopal Church",
        "website": "http://foodnow.net/location/all-saints-episcopal-church-food-pantry/",
        "address": "911 Dowling Ave",
        "address2": "San Leandro, ca 94577",
        "phone": "",
        "description": "<h2><strong>1st Saturday of each month: 1pm</strong></h2>\n<p><em>1st Come, 1st Served, Client Choice </em></p>\n<p>&nbsp;</p>\n<p>Please arrive at 12:15pm to pick up a number. Will only distribute 100 numbers/tickets. Distribution will start at 1pm SHARP.</p>\n<p>&nbsp;</p>\n<p>****please bring your own bags or cart****</p>\n<h6></h6>\n<h6><em>last update 9/25/2019</em></h6>\n"
      }
    },
    {
      "type": "Feature",
      "geometry": {
        "type": "Point",
        "coordinates": [
          -122.174161,
          37.737212
        ]
      },
      "properties": {
        "title": "Stonehurst Elementary &#8211; MOPA",
        "website": "http://foodnow.net/location/stonehurst-elementary-mopa/",
        "address": "10315 E St",
        "address2": "Oakland, CA 94603",
        "phone": "",
        "description": "<h3>ACCFB&#8217;s Mobile Food Pantry (MoPa)</h3>\n<p>First come, First Served.</p>\n<p>&nbsp;</p>\n<p>2nd Wednesday: 9am &#8211; 11am, full distribution</p>\n<p>4th Tuesday: 3pm &#8211; 4pm, produce only   &#8212;-  <u>CLOSED: October 22, 2019</u></p>\n<p>&nbsp;</p>\n<p>Bring your own bag or cart</p>\n<p>&nbsp;</p>\n<h5><strong><em>*Closed: July AND August</em></strong></h5>\n<p>&nbsp;</p>\n<h6></h6>\n"
      }
    },
    {
      "type": "Feature",
      "geometry": {
        "type": "Point",
        "coordinates": [
          -122.056125,
          37.594058
        ]
      },
      "properties": {
        "title": "Los Robles Apartments",
        "website": "http://foodnow.net/location/los-robles-apartments/",
        "address": "32300 Almaden Blvd",
        "address2": "Union City, CA 94587",
        "phone": "",
        "description": "<p>First come, first served or until food runs out\t<br />\n2nd Wednesday of each month<br />\n4:00 &#8211; 6pm\t<br />\nMentioned you were referred by the Food Bank.</p>\n"
      }
    },
    {
      "type": "Feature",
      "geometry": {
        "type": "Point",
        "coordinates": [
          -122.165397,
          37.746038
        ]
      },
      "properties": {
        "title": "Elmhurst Community Prep &#8211; Mobile Pantry (MoPa)",
        "website": "http://foodnow.net/location/elmhurst-community-pantry/",
        "address": "1800 98th Ave",
        "address2": "Oakland, CA 94603",
        "phone": "",
        "description": "<h3>ACCFB&#8217;s Mobile Food Pantry (MoPa)</h3>\n<p>FULL distribution: 1st Tuesday of each month<br />\n3pm &#8211; 4pm</p>\n<p>&nbsp;</p>\n<p>PRODUCE ONLY distribution: 4th Tuesday of each month<br />\n9:30am &#8211; 10:30am</p>\n<p>&nbsp;</p>\n<p><em>Please bring your own bags or cart. </em></p>\n<p>**TWO LINES:</p>\n<p>Clients from the community &#8211; line up on the left side of fence<br />\nClients from the school &#8211; line up on the right side of the fence<br />\nThere will be signs</p>\n<p>&nbsp;</p>\n<h5>CLOSED: July and August</h5>\n"
      }
    },
    {
      "type": "Feature",
      "geometry": {
        "type": "Point",
        "coordinates": [
          -122.027106,
          37.606993
        ]
      },
      "properties": {
        "title": "Union City Family Center &#8211; School Pantry",
        "website": "http://foodnow.net/location/union-city-family-center-school-pantry/",
        "address": "725 Whipple Rd",
        "address2": "Union City, CA 94587",
        "phone": "",
        "description": "<h3>School Based Food Pantry</h3>\n<p>Every Tuesday:<br />\n3pm &#8211; 5pm</p>\n<p>&nbsp;</p>\n<p>next to Barnard White Middle School</p>\n<p>1st Come, 1st Served. Please bring your own bags or cart.</p>\n<p>&nbsp;</p>\n<h5>*CLOSED: July, August, September</h5>\n"
      }
    },
    {
      "type": "Feature",
      "geometry": {
        "type": "Point",
        "coordinates": [
          -122.072474,
          37.587347
        ]
      },
      "properties": {
        "title": "St. Anne Church",
        "website": "http://foodnow.net/location/st-anne-church/",
        "address": "32223 Cabello St",
        "address2": "Union City, CA 94587",
        "phone": "",
        "description": "<p>First come, first served or until food runs out\t<br />\n3rd Saturday\t<br />\n9:30am &#8211; 11am\t<br />\nMust bring ID and proof of address. Serves Union City residents only. </p>\n"
      }
    },
    {
      "type": "Feature",
      "geometry": {
        "type": "Point",
        "coordinates": [
          -122.152239,
          37.762239
        ]
      },
      "properties": {
        "title": "Howard Elementary &#8211; School Pantry",
        "website": "http://foodnow.net/location/howard-elementary-school-pantry/",
        "address": "8755 Fontaine St",
        "address2": "Oakland, CA 94605",
        "phone": "",
        "description": "<h3>School based food pantry</h3>\n<p>1st Monday of each month<br />\n2:15pm &#8211; 3:15pm</p>\n<p>1st Come, 1st Served</p>\n<p>Please arrive at least 30 minutes before start of distribution. Bring your own bags or cart.</p>\n<p>&nbsp;</p>\n<p>&nbsp;</p>\n<h5>*CLOSED: July, August, September</h5>\n"
      }
    },
    {
      "type": "Feature",
      "geometry": {
        "type": "Point",
        "coordinates": [
          -122.175921,
          37.761781
        ]
      },
      "properties": {
        "title": "FAME &#8211; Arroyo Viejo Recreation Center",
        "website": "http://foodnow.net/location/fame-arroyo-viejo-recreation-center/",
        "address": "7701 Krause Ave",
        "address2": "Oakland, CA 94605",
        "phone": "",
        "description": "<p>First come, first served or until food runs out\t<br />\n3rd Friday of each month\t<br />\n4pm &#8211; 7pm \t <br />\nMust have some form of ID. Bring your own bags or cart. Arrive at least 1hr. before distribution.  Held inside recreation center. Rain or shine. </p>\n"
      }
    },
    {
      "type": "Feature",
      "geometry": {
        "type": "Point",
        "coordinates": [
          -122.182013,
          37.76266
        ]
      },
      "properties": {
        "title": "Refuge Food Pantry",
        "website": "http://foodnow.net/location/refuge-food-pantry/",
        "address": "2001 73rd Ave",
        "address2": "Oakland, CA 94621",
        "phone": "",
        "description": "<p>First come, first served or until food runs out\t<br />\n1st, 3rd and 4th  Saturday of each month; Closed the 2nd Saturday.\t<br />\n10:30am to 1:00pm.  Must arrive by 9:30am\t<br />\nMust show proof of some form of ID. Distribution is done in the back of the church. </p>\n"
      }
    },
    {
      "type": "Feature",
      "geometry": {
        "type": "Point",
        "coordinates": [
          -122.184317,
          37.771677
        ]
      },
      "properties": {
        "title": "Frick Middle School &#8211; MOPA",
        "website": "http://foodnow.net/location/frick-middle-school-mopa/",
        "address": "2845 64th Ave",
        "address2": "Oakland, CA 94605",
        "phone": "",
        "description": "<p>First come, first served or until food runs out</p>\n<p>3rd Friday of each month</p>\n<p>3:30pm &#8211; 4:30pm</p>\n<p>Bring your own bag or cart</p>\n<h4><strong><em>NOTE: last distribution will be 5/17/19.  *CLOSED: June, July, August</em></strong></h4>\n"
      }
    },
    {
      "type": "Feature",
      "geometry": {
        "type": "Point",
        "coordinates": [
          -122.197444,
          37.766423
        ]
      },
      "properties": {
        "title": "Project Outreach Inc.",
        "website": "http://foodnow.net/location/project-outreach-inc/",
        "address": "1628 Seminary Ave",
        "address2": "Oakland, CA 94605",
        "phone": "",
        "description": "<p>First come, first served or until food runs out</p>\n<p>Every Thursday of the month</p>\n<p>10:30 &#8211; 11:30am</p>\n<p>Bring your own bag or cart</p>\n"
      }
    },
    {
      "type": "Feature",
      "geometry": {
        "type": "Point",
        "coordinates": [
          -122.190487,
          37.771867
        ]
      },
      "properties": {
        "title": "Christian Tabernacle Church of God in Christ",
        "website": "http://foodnow.net/location/christian-tabernacle-church-of-god-in-christ/",
        "address": "9330 Walnut St",
        "address2": "Oakland, CA 94605",
        "phone": "",
        "description": "<p>First come, first served</p>\n<p>Every Thursday of each month<br />\n5:30pm &#8211; 6:30pm</p>\n<h3>Closed Thursday May 2nd</h3>\n<h3>Closed Thursday May 16th</h3>\n<p>&nbsp;</p>\n<p>*Please bring your own bags or cart</p>\n"
      }
    },
    {
      "type": "Feature",
      "geometry": {
        "type": "Point",
        "coordinates": [
          -122.165612,
          37.789553
        ]
      },
      "properties": {
        "title": "Merritt College &#8211; Food Pantry",
        "website": "http://foodnow.net/location/merritt-college-food-pantry/",
        "address": "12500 Campus Dr",
        "address2": "Oakland, CA 94619",
        "phone": "",
        "description": "<h3>On Campus food distribution</h3>\n<p>2nd Thursday: 12pm &#8211; 4pm  (large produce distribution)</p>\n<p>4th Thursday: 12pm &#8211; 4pm (large produce distribution)</p>\n<p>&nbsp;</p>\n<p>1st Come, 1st Served.</p>\n<p>Please bring your own bag or cart.</p>\n<p>&nbsp;</p>\n<p>**Pantry located outside of Building D144. When you enter campus, go the the right of building</p>\n<p>&nbsp;</p>\n<h5>CLOSED: July, August</h5>\n"
      }
    },
    {
      "type": "Feature",
      "geometry": {
        "type": "Point",
        "coordinates": [
          -122.192763,
          37.788781
        ]
      },
      "properties": {
        "title": "St. Lawrence O' Toole",
        "website": "http://foodnow.net/location/st-lawrence-o-toole/",
        "address": "3725 High St",
        "address2": "Oakland, CA 94619",
        "phone": "",
        "description": "<p>First come, first served or until food runs out\t<br />\n4th Saturday\t<br />\n10am &#8211; 11am<br />\nWill only serve clients within the immediate area. Client should bring their own bags or cart. </p>\n"
      }
    },
    {
      "type": "Feature",
      "geometry": {
        "type": "Point",
        "coordinates": [
          -122.213357,
          37.779562
        ]
      },
      "properties": {
        "title": "Global Family Elementary School &#8211; Mobile Pantry (MoPa)",
        "website": "http://foodnow.net/location/global-family-mobile-pantry-mopa/",
        "address": "2035 40th Avenue",
        "address2": "Oakland, CA 94601",
        "phone": "",
        "description": "<h3>ACCFB&#8217;s Mobile Food Pantry (MoPa)</h3>\n<p>1st &amp; 3rd Thursday of each month</p>\n<p>2:30pm &#8211; 3:30pm</p>\n<p>&nbsp;</p>\n<p>Bring your own bag or cart</p>\n<p>**Between 39th Ave &amp; Mera St. Truck parks on playground<br />\n(enter thru 39th Ave, back of School)</p>\n<p>&nbsp;</p>\n<h6><strong>*CLOSED: July, August, September</strong></h6>\n"
      }
    },
    {
      "type": "Feature",
      "geometry": {
        "type": "Point",
        "coordinates": [
          -122.007603,
          37.555871
        ]
      },
      "properties": {
        "title": "Tri-City Volunteers",
        "website": "http://foodnow.net/location/tri-city-volunteers/",
        "address": "37350 Joseph St",
        "address2": "Fremont, CA 94536",
        "phone": "",
        "description": "<p>First come, first served or until food runs out.  <em>Serves all Alameda County residents </em></p>\n<h3><strong>Monday &#8211; Thursday: 10am-4pm</strong></h3>\n<p>If new, please arrive between 2pm &#8211; 3pm to register<br />\nMust bring some form of ID for every household member and proof of address.</p>\n<p>&nbsp;</p>\n<p>Can pick up food 2x per month.</p>\n<p>The 1st &#8211; 15th AND 16th &#8211; 31st of the month</p>\n<p>&nbsp;</p>\n<h6><em>last update 2/7/2019 </em></h6>\n"
      }
    },
    {
      "type": "Feature",
      "geometry": {
        "type": "Point",
        "coordinates": [
          -122.042149,
          37.538777
        ]
      },
      "properties": {
        "title": "Kidango/Graham Elementary &#8211; Mobile Pantry (MoPa)",
        "website": "http://foodnow.net/location/kidangograham-elementary-mobile-pantry-mopa/",
        "address": "36270 Cherry St",
        "address2": "Newark, CA 94560",
        "phone": "",
        "description": "<h3>ACCFB&#8217;s Mobile Food Pantry</h3>\n<p>&nbsp;</p>\n<p>2nd Wednesday of each month<br />\n3:30pm &#8211; 4:30pm</p>\n<p>&nbsp;</p>\n<p>1st Come, 1st Served. Please bring your own bag or cart.</p>\n<p>**Truck parks in parking lot</p>\n<p>&nbsp;</p>\n<h5>CLOSED: July</h5>\n"
      }
    },
    {
      "type": "Feature",
      "geometry": {
        "type": "Point",
        "coordinates": [
          -122.226877,
          37.782183
        ]
      },
      "properties": {
        "title": "Achieve Academy &#8211; Mobile Pantry (MoPa)",
        "website": "http://foodnow.net/location/achieve-academy-mopa/",
        "address": "1700 28th Ave",
        "address2": "Oakland, CA 94601",
        "phone": "",
        "description": "<h3>ACCFB's Mobile Food Pantry (MoPa)</h3>\n<p>First come, first served or until food runs out</p>\n<p>2nd  &amp; 4th Thursday of each month</p>\n<p>2nd Thursday, 1pm &#8211; 2pm:  full distribution</p>\n<p>4th Thursday, 12:50pm &#8211; 2pm: PRODUCE ONLY</p>\n<p>&nbsp;</p>\n<p>Please, bring your own bags or cart.</p>\n<p>***Distribution is held inside of school, entrance is a block away from 28th Ave****</p>\n<p>&nbsp;</p>\n<h5><strong><em>*Closed: July, August, September</em></strong></h5>\n"
      }
    },
    {
      "type": "Feature",
      "geometry": {
        "type": "Point",
        "coordinates": [
          -121.912617,
          37.705674
        ]
      },
      "properties": {
        "title": "Open Heart Kitchen",
        "website": "http://foodnow.net/location/pathway-community-church/",
        "address": "6533 Sierra Lane",
        "address2": "Dublin, CA 94568",
        "phone": "",
        "description": "<h2>Every Monday<br />\n4:00 &#8211; 6:00pm</h2>\n"
      }
    },
    {
      "type": "Feature",
      "geometry": {
        "type": "Point",
        "coordinates": [
          -122.238667,
          37.78477
        ]
      },
      "properties": {
        "title": "Community School &#8211; Mobile Pantry (MoPa)",
        "website": "http://foodnow.net/location/community-school-mopa/",
        "address": "2111 International Blvd",
        "address2": "Oakland, CA 94601",
        "phone": "",
        "description": "<h3>ACCFB's Mobile Pantry (MoPa)</h3>\n<p>First come, first served</p>\n<p>&nbsp;</p>\n<p>3rd Monday of each month</p>\n<p>10am till 11am</p>\n<p>&nbsp;</p>\n<p>Please bring your own bags or cart.</p>\n<h5>*line forms along the fence on Solano Way (alley way behind the school, between the school and the 76 gas station)</h5>\n<h5></h5>\n<h5>CLOSED: July, August</h5>\n<p>&nbsp;</p>\n"
      }
    },
    {
      "type": "Feature",
      "geometry": {
        "type": "Point",
        "coordinates": [
          -122.03903,
          37.524903
        ]
      },
      "properties": {
        "title": "Viola Blythe Community Center",
        "website": "http://foodnow.net/location/viola-blythe-community-center/",
        "address": "37365 Ash St",
        "address2": "Newark, CA 94560",
        "phone": "",
        "description": "<p>First come, first served</p>\n<h2>\nMonday and Wednesday: 12pm &#8211; 4pm</h2>\n<h2>Tuesday: 9am-1pm</h2>\n<p>To register, must be resident of Fremont, Newark or Union City. Must bring form of ID for each household member, proof of income or EBT card, if possible &amp; proof of residency</p>\n"
      }
    },
    {
      "type": "Feature",
      "geometry": {
        "type": "Point",
        "coordinates": [
          -122.246537,
          37.791661
        ]
      },
      "properties": {
        "title": "St. James Episcopal Church/Iglesia de Santiago",
        "website": "http://foodnow.net/location/st-james-episcopal-churchiglesia-de-santiago/",
        "address": "1540 12th Ave",
        "address2": "Oakland, CA 94606",
        "phone": "",
        "description": "<h2>Closed all March 2019</h2>\n<p>First come, first served or until food runs out.</p>\n<p>2nd and 4th Wednesday of the month ONLY<br />\n3:30pm-4:30pm</p>\n<p>Random #&#8217;s distributed at 3pm</p>\n"
      }
    },
    {
      "type": "Feature",
      "geometry": {
        "type": "Point",
        "coordinates": [
          -122.245137,
          37.794345
        ]
      },
      "properties": {
        "title": "Habor House Ministries",
        "website": "http://foodnow.net/location/habor-house-ministries/",
        "address": "1811 11th Ave",
        "address2": "Oakland, ca 94606",
        "phone": "",
        "description": "<div class=\"wpsl-locations-details\">\n<div class=\"wpsl-contact-details\">First come, First served or until food runs out</div>\n</div>\n<p>Weekly: Thursday (JULY ONLY)  2:30pm &#8211; 4pm</p>\n<p>August &#8211; June: Weekly Tuesday and Thursday: 10am &#8211; 11:30am</p>\n<p>&nbsp;</p>\n<p>Bring your own bags or cart.</p>\n"
      }
    },
    {
      "type": "Feature",
      "geometry": {
        "type": "Point",
        "coordinates": [
          -121.884071,
          37.668519
        ]
      },
      "properties": {
        "title": "Open Heart Kitchen",
        "website": "http://foodnow.net/location/open-heart-kitchen/",
        "address": "1225 Hopyard Blvd",
        "address2": "Pleasanton, CA 94566",
        "phone": "",
        "description": "<p>First come, first served or until food runs out<br />\nEvery Friday<br />\n4pm &#8211; 6pm<br />\nDining room meal</p>\n"
      }
    },
    {
      "type": "Feature",
      "geometry": {
        "type": "Point",
        "coordinates": [
          -121.884071,
          37.668519
        ]
      },
      "properties": {
        "title": "Trinity Lutheran Church",
        "website": "http://foodnow.net/location/trinity-lutheran-church/",
        "address": "1225 Hopyard Road",
        "address2": "Pleasanton, CA 94566",
        "phone": "",
        "description": "<p>Fridays <br />\n4:00 &#8211; 6:00pm</p>\n"
      }
    },
    {
      "type": "Feature",
      "geometry": {
        "type": "Point",
        "coordinates": [
          -122.274302,
          37.7782
        ]
      },
      "properties": {
        "title": "Alameda Food Bank",
        "website": "http://foodnow.net/location/alameda-food-bank/",
        "address": "1900 Thau Way",
        "address2": "Alameda, CA 94501",
        "phone": "",
        "description": "<p><em>***City of Alameda residents ONLY***</em></p>\n<p>&nbsp;</p>\n<p><b>Monday, Wednesday, Friday: 1pm &#8211; 4pm</b></p>\n<p><b>Tuesday: 4:30pm &#8211; 6:30pm</b></p>\n<p><b>2nd, 3rd, 4th Saturday: 11am &#8211; 1pm</b></p>\n<p>&nbsp;</p>\n<p>New clients must register. Please bring the following:</p>\n<ul>\n<li>Some for of I.D. with picture for every adult in household</li>\n<li>Children need birth certificate, Medi-Cal card, or report card</li>\n<li>Proof of address (must be within the last 30 days)</li>\n</ul>\n<h6><em>last update 2/8/2019</em></h6>\n"
      }
    },
    {
      "type": "Feature",
      "geometry": {
        "type": "Point",
        "coordinates": [
          -122.257975,
          37.799146
        ]
      },
      "properties": {
        "title": "Lake Merritt United Methodist Church",
        "website": "http://foodnow.net/location/lake-merritt-united-methodist-church/",
        "address": "1330 Lakeshore Ave",
        "address2": "Oakland, CA 94606",
        "phone": "",
        "description": "<p>4th Saturday<br />\n9:30am &#8211; 12pm</p>\n<p><span style=\"color: #004400;\">The 4th Saturday of each month, existing clients will be served 9:30-11:30am.</span> <span style=\"color: #0000aa;\">Please note</span><span style=\"color: #004400;\"> Food is given out in half-hour time slots by appointment. Newcomers should arrive at 11am to register. Everyone who arrives by 11.30am will be served. </span></p>\n<p>Must have some form of ID and proof of address.</p>\n"
      }
    },
    {
      "type": "Feature",
      "geometry": {
        "type": "Point",
        "coordinates": [
          -122.279307,
          37.780753
        ]
      },
      "properties": {
        "title": "College of Alameda &#8211; Food Pantry",
        "website": "http://foodnow.net/location/college-of-alameda-food-pantry/",
        "address": "555 Ralph Appezzato Mem. Pkwy",
        "address2": "Alameda, CA 94501",
        "phone": "",
        "description": "<h3>On Campus food distribution</h3>\n<p>2nd &amp; 4th Thursday of each month</p>\n<p>12pm &#8211; 3:30pm</p>\n<p>1st Come, 1st Served.</p>\n<p>Please bring your own bags or cart.</p>\n<p>&nbsp;</p>\n<p>**Pantry located outside of Building F</p>\n<p>&nbsp;</p>\n<h5>CLOSED: July, August</h5>\n"
      }
    },
    {
      "type": "Feature",
      "geometry": {
        "type": "Point",
        "coordinates": [
          -122.274937,
          37.800307
        ]
      },
      "properties": {
        "title": "City Team Ministries",
        "website": "http://foodnow.net/location/city-team-ministries/",
        "address": "722 Washington Ave",
        "address2": "Oakland, CA 94607",
        "phone": "",
        "description": "<p>First come, first served</p>\n<p>Every Saturday and Sunday of each month<br />\n7am Breakfast &amp; 6:30pm Dinner</p>\n<p>Everyone is welcome. Must have a meal ticket. Tickets are distributed 10 minutes before start of meal.</p>\n"
      }
    },
    {
      "type": "Feature",
      "geometry": {
        "type": "Point",
        "coordinates": [
          -122.274937,
          37.800307
        ]
      },
      "properties": {
        "title": "City Team Ministries",
        "website": "http://foodnow.net/location/city-team-ministries-2/",
        "address": "722 Washington Ave",
        "address2": "Oakland, CA 94607",
        "phone": "",
        "description": "<p>First come, first served</p>\n<p>Monday thru Friday<br />\n6:30pm &#8211; 7pm</p>\n<p>Everyone is welcome. Must have a meal ticket. Tickets are distributed 10 minutes before start.</p>\n"
      }
    },
    {
      "type": "Feature",
      "geometry": {
        "type": "Point",
        "coordinates": [
          -122.260869,
          37.814533
        ]
      },
      "properties": {
        "title": "Westlake Middle School &#8211; School Pantry",
        "website": "http://foodnow.net/location/westlake-middle-school-school-pantry/",
        "address": "2629 Harrison Street",
        "address2": "Oakland, CA 94612",
        "phone": "",
        "description": "<h4>School based food pantry</h4>\n<p>1st &amp; 3rd Thursday</p>\n<p>3:30pm &#8211; 5:30pm</p>\n<p>1st Come, 1st Served. Please bring your own bags or cart.</p>\n<p>&nbsp;</p>\n<p>**Distribution held on school grounds (inside of school, in the Family Resource Center )</p>\n<p>&nbsp;</p>\n<h5>CLOSED: July and August</h5>\n<p>&nbsp;</p>\n"
      }
    },
    {
      "type": "Feature",
      "geometry": {
        "type": "Point",
        "coordinates": [
          -122.268204,
          37.818269
        ]
      },
      "properties": {
        "title": "St. Augustine&#8217;s Episcopal Church",
        "website": "http://foodnow.net/location/st-augustines-episcopal-church/",
        "address": "525 29th St",
        "address2": "Oakland, CA 94609",
        "phone": "",
        "description": "<p>First come, first served or until food runs out\t <br />\n2nd  and 4th Saturday\t<br />\n10am &#8211; 2pm\t<br />\nAnyone is welcome. Please bring your own bags. Arrive at least 30 minutes prior to distribution.</p>\n"
      }
    },
    {
      "type": "Feature",
      "geometry": {
        "type": "Point",
        "coordinates": [
          -122.275806,
          37.813137
        ]
      },
      "properties": {
        "title": "Joshua Christian Church",
        "website": "http://foodnow.net/location/joshua-christian-church-2/",
        "address": "793 W. Grand Ave",
        "address2": "Oakland, CA 94612",
        "phone": "",
        "description": "<p>First come, first served or until food runs out\t<br />\n2nd &#038; 4th Saturday\t<br />\n11am &#8211; 3pm &#038; 12pm for bagged lunch\t<br />\nBring  some form of ID.  </p>\n"
      }
    },
    {
      "type": "Feature",
      "geometry": {
        "type": "Point",
        "coordinates": [
          -122.275806,
          37.813137
        ]
      },
      "properties": {
        "title": "Joshua Christian Church",
        "website": "http://foodnow.net/location/joshua-christian-church/",
        "address": "793 W Grand Ave",
        "address2": "Oakland, CA 94612",
        "phone": "",
        "description": "<p>First come, first served or until food runs out\t<br />\n2nd &#038; 4th Saturday\t<br />\n12pm \t<br />\nLunch bags to-go</p>\n"
      }
    },
    {
      "type": "Feature",
      "geometry": {
        "type": "Point",
        "coordinates": [
          -122.282215,
          37.808163
        ]
      },
      "properties": {
        "title": "West Oakland Middle &#8211; School Pantry",
        "website": "http://foodnow.net/location/west-oakland-middle-school-pantry/",
        "address": "991 14th St.",
        "address2": "Oakland, CA 94607",
        "phone": "",
        "description": "<h3>School based food pantry</h3>\n<p>2nd &amp; 4th Monday</p>\n<p>8am &#8211; 9:30am AND<br />\n3pm &#8211; 4:30pm</p>\n<p>&nbsp;</p>\n<p>**Distribution is held on school grounds (inside of school in the Health Center)</p>\n<p>&nbsp;</p>\n<p>1st Come, 1st Served. Please bring your own bag or cart</p>\n<p>&nbsp;</p>\n<h5>CLOSED: July, August, September</h5>\n"
      }
    },
    {
      "type": "Feature",
      "geometry": {
        "type": "Point",
        "coordinates": [
          -122.287199,
          37.808497
        ]
      },
      "properties": {
        "title": "Taylor Memorial Church",
        "website": "http://foodnow.net/location/taylor-memorial-church/",
        "address": "1188 12th St",
        "address2": "Oakland, CA 94607",
        "phone": "",
        "description": "<p>First come, first served or until food runs out\t<br />\n4th Saturday\t<br />\n12pm</p>\n"
      }
    },
    {
      "type": "Feature",
      "geometry": {
        "type": "Point",
        "coordinates": [
          -122.261002,
          37.833671
        ]
      },
      "properties": {
        "title": "Oakland Int&#8217;l High &#8211; MOPA",
        "website": "http://foodnow.net/location/oakland-intl-high-mopa/",
        "address": "4521 Webster St",
        "address2": "Oakland, CA 94609",
        "phone": "",
        "description": "<p>First come, first served or until food runs out</p>\n<p>4th Thursday of each month</p>\n<p>3pm &#8211; 4pm</p>\n<p>Bring your own bag or cart</p>\n<p>&nbsp;</p>\n<h5><strong><em>*Closed: July, August, September</em></strong></h5>\n"
      }
    },
    {
      "type": "Feature",
      "geometry": {
        "type": "Point",
        "coordinates": [
          -122.295954,
          37.808204
        ]
      },
      "properties": {
        "title": "Prescott Joseph Center",
        "website": "http://foodnow.net/location/prescott-joseph-center/",
        "address": "920 Peralta St",
        "address2": "Oakland, CA 94607",
        "phone": "",
        "description": "<p>First come, first served or until food runs out\t<br />\n4th Saturday\t<br />\n10:30am\t<br />\nArrive at 9am to pick up a number card. They only distribute 200 food bags.</p>\n"
      }
    },
    {
      "type": "Feature",
      "geometry": {
        "type": "Point",
        "coordinates": [
          -122.279079,
          37.823525
        ]
      },
      "properties": {
        "title": "Last Phase Loaves and Fish Food Program",
        "website": "http://foodnow.net/location/last-phase-loaves-and-fish-food/",
        "address": "1060 32nd St",
        "address2": "Oakland, CA 94608",
        "phone": "",
        "description": "<h2>E<strong>very Monday and Friday: 2pm &#8211; 5pm</strong></h2>\n<p><span style=\"color: #ff0000;\">CLOSED for food distribution: March 4th &#8211; 15th, 2019</span></p>\n<p><em>(please arrive no later than 5pm)</em></p>\n<p>First come, First Served</p>\n<p>****please bring your own bags or cart****</p>\n<h6><em>last update 2/8/2019</em></h6>\n"
      }
    },
    {
      "type": "Feature",
      "geometry": {
        "type": "Point",
        "coordinates": [
          -122.278365,
          37.827418
        ]
      },
      "properties": {
        "title": "ECAP/Everyone's Community Action Program",
        "website": "http://foodnow.net/location/everyones-community-action-program-ohana-community-ecap/",
        "address": "3610 San Pablo Ave",
        "address2": "Oakland, CA 94608",
        "phone": "",
        "description": "<h2><strong>every Tuesday, Thursday, Friday and Saturday: 11:30am</strong></h2>\n<p>First come, First Served</p>\n<p>&nbsp;</p>\n<p>****please bring your own bags or cart****</p>\n<h6></h6>\n<h6><em>last update 2/8/2019</em></h6>\n<p>&nbsp;</p>\n<p>&nbsp;</p>\n"
      }
    },
    {
      "type": "Feature",
      "geometry": {
        "type": "Point",
        "coordinates": [
          -122.26179,
          37.838857
        ]
      },
      "properties": {
        "title": "Telegraph Community Center",
        "website": "http://foodnow.net/location/telegraph-community-center/",
        "address": "5316 Telegraph Ave",
        "address2": "Oakland, CA 94609",
        "phone": "",
        "description": "<div class=\"wpsl-locations-details\">\n<div class=\"wpsl-contact-details\">2nd &amp; 4th Wednesday:  6pm &#8211; 7:30pm</div>\n</div>\n<p>1st Come, 1st Served</p>\n<p>&nbsp;</p>\n<p>**Bring your own bag or cart</p>\n"
      }
    },
    {
      "type": "Feature",
      "geometry": {
        "type": "Point",
        "coordinates": [
          -122.268124,
          37.854837
        ]
      },
      "properties": {
        "title": "St. Paul A. M. E. Church",
        "website": "http://foodnow.net/location/st-paul-a-m-e-church/",
        "address": "2024 Ashby Avenue",
        "address2": "Berkeley, CA 94703",
        "phone": "",
        "description": "<p>First come, first served or until food runs out\t<br />\n2nd and  4th Sunday\t<br />\n12pm &#8211; 2pm \t<br />\nClosed August 2016<br />\nHot Meal every Tuesday 11:30am &#8211; 12:30pm </p>\n"
      }
    },
    {
      "type": "Feature",
      "geometry": {
        "type": "Point",
        "coordinates": [
          -122.265959,
          37.856661
        ]
      },
      "properties": {
        "title": "The Church by the Side of the Road",
        "website": "http://foodnow.net/location/the-church-by-the-side-of-the-road/",
        "address": "2108 Russell St",
        "address2": "Berkeley, CA 94705",
        "phone": "",
        "description": "<p>First come, first served or until food runs out\t<br />\n2nd Saturday\t<br />\n1pm\t<br />\nDining room meal</p>\n"
      }
    },
    {
      "type": "Feature",
      "geometry": {
        "type": "Point",
        "coordinates": [
          -121.800476,
          37.71086
        ]
      },
      "properties": {
        "title": "Las Positas College &#8211; Food Pantry",
        "website": "http://foodnow.net/location/las-positas-college-food-pantry/",
        "address": "3000 Campus Hill Dr",
        "address2": "Livermore, CA 94551",
        "phone": "",
        "description": "<h3>On Campus food distribution</h3>\n<p>3rd Tuesday of each month:</p>\n<p>1pm &#8211; 4pm</p>\n<p>&nbsp;</p>\n<p>1st Come, 1st Served.</p>\n<p>&nbsp;</p>\n<p>Please bring your own bag or cart.</p>\n<p>**Pantry located outside of Building 1600</p>\n"
      }
    },
    {
      "type": "Feature",
      "geometry": {
        "type": "Point",
        "coordinates": [
          -122.283091,
          37.876461
        ]
      },
      "properties": {
        "title": "Berkeley Food Pantry",
        "website": "http://foodnow.net/location/berkeley-food-pantry/",
        "address": "1600 Sacramento St",
        "address2": "Berkeley, CA 94702",
        "phone": "",
        "description": "<p><em>***City of Berkeley or Albany residents ONLY***</em></p>\n<p>&nbsp;</p>\n<h2><strong>open every Monday, Wednesday, Friday: 2pm &#8211; 4pm</strong></h2>\n<p>&nbsp;</p>\n<p>First Come, First Served</p>\n<p>&nbsp;</p>\n<p>New clients must register. Please bring the following:</p>\n<ul>\n<li>Some form of I.D.</li>\n<li>Proof of address (must be within the last 30 days)</li>\n</ul>\n<h6><em>last update 2/8/2019</em></h6>\n<p>&nbsp;</p>\n"
      }
    },
    {
      "type": "Feature",
      "geometry": {
        "type": "Point",
        "coordinates": [
          -121.770856,
          37.687088
        ]
      },
      "properties": {
        "title": "Vineyard Christian Fellowship",
        "website": "http://foodnow.net/location/vineyard-christian-fellowship/",
        "address": "460 N. Livermore Ave.",
        "address2": "Livermore, CA 94551",
        "phone": "",
        "description": "<p>Thursdays &#038; Fridays <br />\n1:00 &#8211; 6:00pm</p>\n"
      }
    },
    {
      "type": "Feature",
      "geometry": {
        "type": "Point",
        "coordinates": [
          -121.767855,
          37.687762
        ]
      },
      "properties": {
        "title": "Tri-Valley Haven Food Pantry",
        "website": "http://foodnow.net/location/tri-valley-haven-food-pantry/",
        "address": "418 Junction Ave",
        "address2": "Livermore, CA 94550",
        "phone": "",
        "description": "<div class=\"wpsl-locations-details\">\n<div class=\"wpsl-contact-details\"><em>Serves Livermore, Dublin, Pleasanton or Sonol residents </em></div>\n</div>\n<h3>Monday – Wednesday: 1pm &#8211; 5pm AND Thursday: 1pm &#8211; 7pm</h3>\n<p>&nbsp;</p>\n<p>If new client, please bring some form of ID and proof of address.</p>\n<p>&nbsp;</p>\n<p>Can pick up food 2x per month.</p>\n<p>The 1st – 15th AND 16th – 31st of the month</p>\n<pre id=\"tw-target-text\" class=\"tw-data-text tw-ta tw-text-medium\" dir=\"ltr\" data-placeholder=\"Translation\" data-fulltext=\"\"></pre>\n<h6><em>last update 2/8/2019 </em></h6>\n"
      }
    },
    {
      "type": "Feature",
      "geometry": {
        "type": "Point",
        "coordinates": [
          -121.736986,
          37.67907
        ]
      },
      "properties": {
        "title": "Open Heart Kitchen of Livermore",
        "website": "http://foodnow.net/location/asbury-united-methodist-church/",
        "address": "4743 East Ave",
        "address2": "Livermore, CA 94550",
        "phone": "",
        "description": "<p>Tuesdays &amp; Wednesdays<br />\n12:00 &#8211; 6:00pm</p>\n<p>**located inside of  Asbury Methodist Church</p>\n<p>&nbsp;</p>\n"
      }
    },
    {
      "type": "Feature",
      "geometry": {
        "type": "Point",
        "coordinates": [
          -121.736868,
          37.679081
        ]
      },
      "properties": {
        "title": "Open Heart Kitchen",
        "website": "http://foodnow.net/location/open-heart-kitchen-2/",
        "address": "4743 East Ave",
        "address2": "Livermore, CA 94550",
        "phone": "",
        "description": "<p>First come, first served or until food runs out\t<br />\nEvery Tuesday &#038; Wednesday \t<br />\n12pm &#8211; 6pm &#038; <br />\nFriday 1 &#8211; 6pm </p>\n<p>Everyone is welcome. </p>\n"
      }
    },
    {
      "type": "Feature",
      "geometry": {
        "type": "Point",
        "coordinates": [
          -118.489118,
          34.01347
        ]
      },
      "properties": {
        "title": "WSFB- Ocean Park Community Center",
        "address": "503 Olympic Boulevard",
        "address2": "Santa Monica, CA 90401",
        "phone": "310.450.4050",
        "description": "Tuesday 1:00 PM - 2:30 PM"
      }
    },
    {
      "type": "Feature",
      "geometry": {
        "type": "Point",
        "coordinates": [
          -118.476605,
          34.02673
        ]
      },
      "properties": {
        "title": "WSFB- St. Anne&#8217;s Social Service",
        "address": "2013 Colorado Avenue",
        "address2": "Santa Monica, CA 90404",
        "phone": "310.829.4411",
        "description": "Wednesday 4:00 PM - 5:30 PM"
      }
    },
    {
      "type": "Feature",
      "geometry": {
        "type": "Point",
        "coordinates": [
          -118.477569,
          33.998169
        ]
      },
      "properties": {
        "title": "Catholic Charities St. Roberts",
        "address": "211 3rd Ave.",
        "address2": "Venice, CA 90291",
        "phone": "310.848.1448",
        "description": "1st Sunday & Saturday 10:00 AM-2:00 PM"
      }
    },
    {
      "type": "Feature",
      "geometry": {
        "type": "Point",
        "coordinates": [
          -118.477865,
          33.997834
        ]
      },
      "properties": {
        "title": "WSFB- St. Joseph&#8217;s Center",
        "address": "204 Hampton Drive",
        "address2": "Venice, CA 90291",
        "phone": "310.396.6468",
        "description": "Monday, Wednesday, Thursday 10:00 AM - 12:00 PM; Tuesday & Friday 1:00 PM - 3:00 PM"
      }
    },
    {
      "type": "Feature",
      "geometry": {
        "type": "Point",
        "coordinates": [
          -118.419094,
          33.995315
        ]
      },
      "properties": {
        "title": "WSFB- St. Gerard&#8217;s Social Services",
        "address": "4439 Inglewood Boulevard",
        "address2": "Los Angeles, CA 90066",
        "phone": "310.390.5034",
        "description": "Tuesday & Thursday 9:00 AM - 12:00 PM & 1:00 PM - 3:00 PM"
      }
    },
    {
      "type": "Feature",
      "geometry": {
        "type": "Point",
        "coordinates": [
          -118.400788,
          34.021285
        ]
      },
      "properties": {
        "title": "WSFB- St. Augustine SAVES",
        "address": "3820 Jasmine Avenue",
        "address2": "Culver City, CA 90232",
        "phone": "310.838.2702",
        "description": "Monday, Wednesday, Friday 9:00 AM - 11:45 AM"
      }
    },
    {
      "type": "Feature",
      "geometry": {
        "type": "Point",
        "coordinates": [
          -118.384862,
          34.054699
        ]
      },
      "properties": {
        "title": "JFS/SOVA Community Food &#038; Resource Program",
        "address": "8846 W. Pico Boulevard",
        "address2": "Los Angeles, CA 90035",
        "phone": "818.988.7682",
        "description": "Monday-Thursday 10:00 AM-1:30 PM & Sunday 9:00 AM-12:00 PM"
      }
    },
    {
      "type": "Feature",
      "geometry": {
        "type": "Point",
        "coordinates": [
          -118.366161,
          34.041477
        ]
      },
      "properties": {
        "title": "Christian Association for Social Services",
        "address": "5814 Venice Blvd.",
        "address2": "Los Angeles, CA 90019",
        "phone": "323-936-9481",
        "description": "1st & 3rd Friday & Saturday 10:00 AM-12:00 PM"
      }
    },
    {
      "type": "Feature",
      "geometry": {
        "type": "Point",
        "coordinates": [
          -118.356743,
          34.025827
        ]
      },
      "properties": {
        "title": "Unity Fellowship of Christ Church",
        "address": "5149 W. Jefferson Blvd",
        "address2": "Los Angeles, CA 90016",
        "phone": "310.930.5683",
        "description": "Tuesday 12:30 PM-4:00 PM"
      }
    },
    {
      "type": "Feature",
      "geometry": {
        "type": "Point",
        "coordinates": [
          -118.366702,
          33.96243
        ]
      },
      "properties": {
        "title": "First Lutheran Church of Inglewood",
        "address": "600 West Queen Street",
        "address2": "Inglewood, CA 90301",
        "phone": "310.674.5103",
        "description": "Thursday 8:30 AM - 10:30 AM"
      }
    },
    {
      "type": "Feature",
      "geometry": {
        "type": "Point",
        "coordinates": [
          -118.356856,
          33.976669
        ]
      },
      "properties": {
        "title": "Chapel of Peace Lutheran Church",
        "address": "1009 N. Market Street",
        "address2": "Inglewood, CA 90302",
        "phone": "310.673.2584",
        "description": "3rd Saturday 9:00 AM - 12:00 PM"
      }
    },
    {
      "type": "Feature",
      "geometry": {
        "type": "Point",
        "coordinates": [
          -118.357221,
          33.972935
        ]
      },
      "properties": {
        "title": "Christ Centered Ministries Church",
        "address": "742 N. La Brea Avenue",
        "address2": "Inglewood, CA 90302",
        "phone": "310.676.1499",
        "description": "3rd Saturday 10:00 AM - 12:00 PM"
      }
    },
    {
      "type": "Feature",
      "geometry": {
        "type": "Point",
        "coordinates": [
          -118.346332,
          33.988648
        ]
      },
      "properties": {
        "title": "Grace United Methodist Church",
        "address": "4112 W. Slauson Blvd.",
        "address2": "Los Angeles, CA 90043",
        "phone": "323.294.6653",
        "description": "3rd Friday 8:00-11:00 AM"
      }
    },
    {
      "type": "Feature",
      "geometry": {
        "type": "Point",
        "coordinates": [
          -118.359983,
          33.959573
        ]
      },
      "properties": {
        "title": "Inglewood Church of Christ",
        "address": "323 S. Eucalyptus Ave.",
        "address2": "Inglewood, CA 90301",
        "phone": "310.674.7690",
        "description": "3rd Friday 10:00 AM - 12:00 PM"
      }
    },
    {
      "type": "Feature",
      "geometry": {
        "type": "Point",
        "coordinates": [
          -118.340944,
          34.006966
        ]
      },
      "properties": {
        "title": "Crenshaw United Methodist Church",
        "address": "3740 Don Felipe Drive",
        "address2": "Los Angeles, CA 90008",
        "phone": "323.292.0141",
        "description": "3rd Saturday 10:00 AM - 12:00 PM"
      }
    },
    {
      "type": "Feature",
      "geometry": {
        "type": "Point",
        "coordinates": [
          -118.341606,
          33.992811
        ]
      },
      "properties": {
        "title": "Robbins Memorial Church of God in Christ",
        "address": "3868 W. 54th Street",
        "address2": "Los Angeles, CA 90043",
        "phone": "323-298-8771",
        "description": "1st Wednesday 8:00 AM - 9:00 AM"
      }
    },
    {
      "type": "Feature",
      "geometry": {
        "type": "Point",
        "coordinates": [
          -118.354641,
          33.957906
        ]
      },
      "properties": {
        "title": "New Mount Pleasant Missionary Baptist Church",
        "address": "434 S. Grevillea Ave",
        "address2": "Inglewood, CA 90301",
        "phone": "310.673.6250",
        "description": "3rd & 4th Wednesday 11:00 AM-2:00 PM"
      }
    },
    {
      "type": "Feature",
      "geometry": {
        "type": "Point",
        "coordinates": [
          -118.335414,
          34.026713
        ]
      },
      "properties": {
        "title": "West Angeles Community Corporation",
        "address": "3045 South Crenshaw Boulevard",
        "address2": "Los Angeles, CA 90016",
        "phone": "323.751.3440",
        "description": "Monday - Thursday 9:00 AM - 1:00 PM"
      }
    },
    {
      "type": "Feature",
      "geometry": {
        "type": "Point",
        "coordinates": [
          -118.337061,
          34.039696
        ]
      },
      "properties": {
        "title": "Bread of Life Foursquare Gospel Church",
        "address": "5175 1/2 W. Washington St.",
        "address2": "Los Angeles, CA 90016",
        "phone": "323.939.4716",
        "description": "Wednesday 11:00 am to 12:30 pm (Senior Only Distribution 3rd Wednesday 10:30 AM & 4th Sunday 3:00 PM)"
      }
    },
    {
      "type": "Feature",
      "geometry": {
        "type": "Point",
        "coordinates": [
          -118.3372,
          34.040634
        ]
      },
      "properties": {
        "title": "First Presbyterian Church",
        "address": "1809 West Boulevard.",
        "address2": "Los Angeles, CA 90019",
        "phone": "323.935.5204",
        "description": "1st Sunday 12:30 PM - 2:00 PM & 3rd Saturday 9:00 AM - 11:00 AM"
      }
    },
    {
      "type": "Feature",
      "geometry": {
        "type": "Point",
        "coordinates": [
          -118.353637,
          33.958237
        ]
      },
      "properties": {
        "title": "Breath of Life S.D.A. Church",
        "address": "425 S. La Brea",
        "address2": "Inglewood, CA 90301",
        "phone": "310.837.8782",
        "description": "1st & 3rd Thursday 12:00 PM - 3:00 PM (Seniors Only Distribution Hours 1st Thursday 9:30 AM - 11:30 AM)"
      }
    },
    {
      "type": "Feature",
      "geometry": {
        "type": "Point",
        "coordinates": [
          -118.350769,
          33.959536
        ]
      },
      "properties": {
        "title": "American Veteran Inc.",
        "address": "318 E. Hillcrest Blvd",
        "address2": "Inglewood, CA 90301",
        "phone": "909-534-5953",
        "description": "Friday 5:00 PM - 10:00 PM & Saturday & Sunday 10:00 AM - 2:00 PM"
      }
    },
    {
      "type": "Feature",
      "geometry": {
        "type": "Point",
        "coordinates": [
          -118.361832,
          33.943034
        ]
      },
      "properties": {
        "title": "St. Margaret&#8217;s Center",
        "address": "10217 Inglewood Avenue",
        "address2": "Lennox, CA 90304",
        "phone": "310.672.2208",
        "description": "Monday, Wednesday, Friday 9:00 AM - 12:00 PM & 1:00 PM - 4:00 PM"
      }
    },
    {
      "type": "Feature",
      "geometry": {
        "type": "Point",
        "coordinates": [
          -118.330985,
          34.03299
        ]
      },
      "properties": {
        "title": "Berean S.D.A. Church",
        "address": "4211 W. Adams Boulevard",
        "address2": "Los Angeles, CA 90018",
        "phone": "323.735.0228",
        "description": "3rd Thursday 9:00 AM - 11:00 AM"
      }
    },
    {
      "type": "Feature",
      "geometry": {
        "type": "Point",
        "coordinates": [
          -118.334169,
          33.988313
        ]
      },
      "properties": {
        "title": "My Friends House",
        "address": "3533 West 58th Place",
        "address2": "Los Angeles, CA 90043",
        "phone": "323.292.4939",
        "description": "Wednesday 9:00 AM - 11:00 AM"
      }
    },
    {
      "type": "Feature",
      "geometry": {
        "type": "Point",
        "coordinates": [
          -118.365416,
          33.924778
        ]
      },
      "properties": {
        "title": "Del Aire Baptist Church",
        "address": "4951 W. 119th Place",
        "address2": "Hawthorne, CA 90250",
        "phone": "310.676.8352",
        "description": "Friday 9/13 & 9/27 from 2:00 PM-4:00 PM & Saturday 9/7 & 9/21 from 9:00 AM - 12:00 PM (Senior Only Distributions 9/11 & 9/18 from 1:00-2:00 PM)"
      }
    },
    {
      "type": "Feature",
      "geometry": {
        "type": "Point",
        "coordinates": [
          -118.346423,
          33.946987
        ]
      },
      "properties": {
        "title": "Greater New Bethel",
        "address": "601 E. 99th St",
        "address2": "Inglewood, CA 90301",
        "phone": "310.677.1663",
        "description": "2nd & 4th Tues & Thursday 10:00am-1:00pm"
      }
    },
    {
      "type": "Feature",
      "geometry": {
        "type": "Point",
        "coordinates": [
          -118.352144,
          33.928754
        ]
      },
      "properties": {
        "title": "Justice Children Deserve",
        "address": "11612 Hawthorne Blvd, Suite 103",
        "address2": "Hawthorne, CA 90250",
        "phone": "213.426.0108",
        "description": "2nd & 4th Friday 11:00 AM - 2:00 PM"
      }
    },
    {
      "type": "Feature",
      "geometry": {
        "type": "Point",
        "coordinates": [
          -118.343342,
          33.942083
        ]
      },
      "properties": {
        "title": "Inglewood Southside Christian Church",
        "address": "3947 W. 104th Street",
        "address2": "Inglewood, CA 90303",
        "phone": "310.677.0446",
        "description": "2nd Saturday 10:00 AM - 1:00 PM"
      }
    },
    {
      "type": "Feature",
      "geometry": {
        "type": "Point",
        "coordinates": [
          -118.334826,
          33.960216
        ]
      },
      "properties": {
        "title": "Maranatha S.D.A. Community Center",
        "address": "3569 W. Manchester Blvd.",
        "address2": "Inglewood, CA 90305",
        "phone": "323.971.3511",
        "description": "2nd & 4th Tuesday 10:00-11:30 AM"
      }
    },
    {
      "type": "Feature",
      "geometry": {
        "type": "Point",
        "coordinates": [
          -118.328164,
          33.96781
        ]
      },
      "properties": {
        "title": "Zion Hill Baptist Church",
        "address": "7860 10th Avenue",
        "address2": "Los Angeles, CA 90043",
        "phone": "323.753.4610",
        "description": "1st & 3rd Tuesday 10:00 AM - 12:00 PM (Senior Only Distribution 4th Friday 10:00 AM - 11:30 AM)"
      }
    },
    {
      "type": "Feature",
      "geometry": {
        "type": "Point",
        "coordinates": [
          -118.325827,
          33.952441
        ]
      },
      "properties": {
        "title": "Holy Trinity Lutheran Church",
        "address": "9300 Crenshaw Blvd",
        "address2": "Inglewood, CA 90305",
        "phone": "323.757.1739",
        "description": "2nd & 4th Saturday 1:00 PM-2:00 PM"
      }
    },
    {
      "type": "Feature",
      "geometry": {
        "type": "Point",
        "coordinates": [
          -118.338406,
          33.934109
        ]
      },
      "properties": {
        "title": "Greater Emmanuel M.B.C.",
        "address": "3727 West 111th Place",
        "address2": "Inglewood, CA 90303",
        "phone": "310.677.9916",
        "description": "Saturday 9:00 AM -11:00 AM & Wednesday 9:00 AM -11:00 AM"
      }
    },
    {
      "type": "Feature",
      "geometry": {
        "type": "Point",
        "coordinates": [
          -118.313608,
          33.963229
        ]
      },
      "properties": {
        "title": "Saint Mark Food Pantry",
        "address": "8305 S. Gramercy Place",
        "address2": "Los Angeles, CA 90047",
        "phone": "323.753.3535",
        "description": "1st & 3rd Wednesday 10:30 AM - 11:30 AM"
      }
    },
    {
      "type": "Feature",
      "geometry": {
        "type": "Point",
        "coordinates": [
          -118.324689,
          33.988853
        ]
      },
      "properties": {
        "title": "Islah L.A.",
        "address": "2900 Slauson Ave.",
        "address2": "Los Angeles, CA 90043",
        "phone": "323.596.3456",
        "description": "Saturday 11:30 AM - 12:45 PM"
      }
    },
    {
      "type": "Feature",
      "geometry": {
        "type": "Point",
        "coordinates": [
          -118.351722,
          33.925161
        ]
      },
      "properties": {
        "title": "St. Joseph Catholic Church",
        "address": "11901 Acacia Ave.",
        "address2": "Hawthorne, CA 90250",
        "phone": "310.679.1139",
        "description": "2nd Sunday 9:00 AM - 11:00 AM"
      }
    },
    {
      "type": "Feature",
      "geometry": {
        "type": "Point",
        "coordinates": [
          -118.308742,
          33.964369
        ]
      },
      "properties": {
        "title": "New Direction Community Program",
        "address": "8200 South Western Avenue",
        "address2": "Los Angeles, CA 90047",
        "phone": "323.291.0035",
        "description": "2nd & 4th Saturday 1:30 PM-2:30 PM"
      }
    },
    {
      "type": "Feature",
      "geometry": {
        "type": "Point",
        "coordinates": [
          -118.309265,
          33.970393
        ]
      },
      "properties": {
        "title": "H.O.P.E. Helping Other People Excel",
        "address": "7615 S. Western Ave",
        "address2": "Los Angeles, CA 90047",
        "phone": "310.753.8560",
        "description": "Monday & Friday 10:00 AM -12:00 PM (Senior Only Distribution 1st Monday 12:00 PM - 2:00 PM)"
      }
    },
    {
      "type": "Feature",
      "geometry": {
        "type": "Point",
        "coordinates": [
          -118.307054,
          33.959516
        ]
      },
      "properties": {
        "title": "Another Way Foundation",
        "address": "1704 Manchester Ave, Suite #204",
        "address2": "Los Angeles, CA 90047",
        "phone": "323.944.4754",
        "description": "2nd & 4th Tuesday and Thursday"
      }
    },
    {
      "type": "Feature",
      "geometry": {
        "type": "Point",
        "coordinates": [
          -118.15902,
          34.012313
        ]
      },
      "properties": {
        "title": "Door of Hope Community Center",
        "address": "1414 South Atlantic Blvd.",
        "address2": "Los Angeles, CA 90022",
        "phone": "323.262.2777",
        "description": "Monday & Thursday 9:00 AM - 11:00 AM"
      }
    },
    {
      "type": "Feature",
      "geometry": {
        "type": "Point",
        "coordinates": [
          -118.150166,
          34.021013
        ]
      },
      "properties": {
        "title": "Eastmont Community Center",
        "address": "701 Hoefner Avenue",
        "address2": "Los Angeles, CA 90022",
        "phone": "323.726.7998",
        "description": "Monday - Friday 9:00 AM - 11:00 AM"
      }
    },
    {
      "type": "Feature",
      "geometry": {
        "type": "Point",
        "coordinates": [
          -118.149434,
          34.020954
        ]
      },
      "properties": {
        "title": "East L.A. Bilingual S.D.A. Church",
        "address": "700 Hoefner Avenue",
        "address2": "Los Angeles, CA 90022",
        "phone": "323.633.4734",
        "description": "Wednesday 5:30 PM - 6:30 PM, 1st & 3rd Saturday 12:00 PM - 12:45 PM"
      }
    },
    {
      "type": "Feature",
      "geometry": {
        "type": "Point",
        "coordinates": [
          -118.179296,
          34.03715
        ]
      },
      "properties": {
        "title": "Food Net- East Los Angeles Center",
        "address": "133 N. Sunol Drive",
        "address2": "Los Angeles, CA 90063",
        "phone": "323-260-2801",
        "description": "Monday, Tuesday, Friday 9:30 AM - 12:00 PM; 1:30 PM - 4:00 PM"
      }
    },
    {
      "type": "Feature",
      "geometry": {
        "type": "Point",
        "coordinates": [
          -118.164472,
          34.040334
        ]
      },
      "properties": {
        "title": "Food Net-Centro Maravilla",
        "address": "4716 E. Cesar Chavez Avenue",
        "address2": "Los Angeles, CA 90022",
        "phone": "323.260.2804",
        "description": "Monday, Tuesday, Friday 8:30 AM - 4:00 PM"
      }
    },
    {
      "type": "Feature",
      "geometry": {
        "type": "Point",
        "coordinates": [
          -118.18545,
          34.036924
        ]
      },
      "properties": {
        "title": "Salvation Army- East L.A.",
        "address": "140 N. Eastman Avenue",
        "address2": "Los Angeles, CA 90063",
        "phone": "323.263-7577",
        "description": "Monday - Friday 9:00 AM - 12:00 PM & 12:30- 3:30 PM"
      }
    },
    {
      "type": "Feature",
      "geometry": {
        "type": "Point",
        "coordinates": [
          -118.179417,
          34.042108
        ]
      },
      "properties": {
        "title": "Guadalupe Food Program",
        "address": "4018 East Hammel Street",
        "address2": "Los Angeles, CA 90063",
        "phone": "323.261.8051",
        "description": "2nd & 4th Wednesday 7:00 AM - 9:00 AM"
      }
    },
    {
      "type": "Feature",
      "geometry": {
        "type": "Point",
        "coordinates": [
          -118.15756,
          34.000901
        ]
      },
      "properties": {
        "title": "City of Commerce Community Center",
        "address": "5625 Jillson Street",
        "address2": "Commerce, CA 90040",
        "phone": "323 887-4460",
        "description": "3rd Thursday 10:30 AM - 1:00 PM"
      }
    },
    {
      "type": "Feature",
      "geometry": {
        "type": "Point",
        "coordinates": [
          -118.137641,
          34.013463
        ]
      },
      "properties": {
        "title": "Eastmont S.D.A. Spanish Church",
        "address": "1021 Westside Drive",
        "address2": "Los Angeles, CA 90022",
        "phone": "323.284.6004",
        "description": "Monday 6:30-8:00pm"
      }
    },
    {
      "type": "Feature",
      "geometry": {
        "type": "Point",
        "coordinates": [
          -118.199685,
          34.026918
        ]
      },
      "properties": {
        "title": "Family Health Care Resources",
        "address": "3444 Whittier Blvd",
        "address2": "Los Angeles, CA 90023",
        "phone": "213.413.3040",
        "description": "Monday-Friday 8:00 AM-6:00 PM"
      }
    },
    {
      "type": "Feature",
      "geometry": {
        "type": "Point",
        "coordinates": [
          -118.133709,
          34.019165
        ]
      },
      "properties": {
        "title": "Mexican-American Opportunity Foundation",
        "address": "401 N. Garfield Ave",
        "address2": "Montebello, CA 90640",
        "phone": "323.890.9600",
        "description": "Wednesday & Thursday 9:00 AM - 1:00 PM"
      }
    },
    {
      "type": "Feature",
      "geometry": {
        "type": "Point",
        "coordinates": [
          -118.199474,
          34.030634
        ]
      },
      "properties": {
        "title": "MFP-East LA Community Corporation",
        "address": "611 S. Lorena Street",
        "address2": "Los Angeles, CA 90023",
        "phone": "323.269.4214",
        "description": "3rd Wednesday 9:00-11:00 AM"
      }
    },
    {
      "type": "Feature",
      "geometry": {
        "type": "Point",
        "coordinates": [
          -118.20245,
          34.039745
        ]
      },
      "properties": {
        "title": "Iglesia Pentecostes Roca de Salvacion",
        "address": "122 South Evergreen Avenue",
        "address2": "Los Angeles, CA 90033",
        "phone": "323.832.5313",
        "description": "2nd & 4th Sunday 5:00pm-6:00pm"
      }
    },
    {
      "type": "Feature",
      "geometry": {
        "type": "Point",
        "coordinates": [
          -118.208511,
          34.021122
        ]
      },
      "properties": {
        "title": "Estrada Courts Community Center",
        "address": "3232 Hunter Street",
        "address2": "Los Angeles, CA 90023",
        "phone": "323.641.8943",
        "description": "2nd & 4th Wednesday 8:00 AM - 10:00 AM"
      }
    },
    {
      "type": "Feature",
      "geometry": {
        "type": "Point",
        "coordinates": [
          -118.205009,
          34.036546
        ]
      },
      "properties": {
        "title": "Our Lady of Talpa Church",
        "address": "427 S. Evergreen Ave.",
        "address2": "Los Angeles, CA 90033",
        "phone": "323.268.9177",
        "description": "3rd Tuesday 1:00 PM - 3:00 PM"
      }
    },
    {
      "type": "Feature",
      "geometry": {
        "type": "Point",
        "coordinates": [
          -118.189238,
          33.987693
        ]
      },
      "properties": {
        "title": "MFP-City of Maywood",
        "address": "4319 E. Slauson Avenue",
        "address2": "Maywood, CA 90270",
        "phone": "323.562.5755",
        "description": "4th Thursday 1:00 PM - 3:00 PM"
      }
    },
    {
      "type": "Feature",
      "geometry": {
        "type": "Point",
        "coordinates": [
          -118.113475,
          34.011737
        ]
      },
      "properties": {
        "title": "Rosewood Revitalization Group",
        "address": "1220 West Whittier Blvd",
        "address2": "Montebello, CA 90640",
        "phone": "323.662.1194",
        "description": "3rd Saturday 1:00 PM-3:00 PM"
      }
    },
    {
      "type": "Feature",
      "geometry": {
        "type": "Point",
        "coordinates": [
          -118.164907,
          33.975503
        ]
      },
      "properties": {
        "title": "All Nations Christian Fellowship",
        "address": "5602 E. Gage Ave",
        "address2": "Bell Gardens, CA 90201",
        "phone": "323.773.4883",
        "description": "3rd Sunday 1:00 PM-2:00 PM"
      }
    },
    {
      "type": "Feature",
      "geometry": {
        "type": "Point",
        "coordinates": [
          -118.110028,
          34.010207
        ]
      },
      "properties": {
        "title": "MFP-Latino Kids Health",
        "address": "901 W. Whittier Blvd",
        "address2": "Montebello, CA 90640",
        "phone": "323.765.8916",
        "description": "3rd Tuesday 9am-12pm"
      }
    },
    {
      "type": "Feature",
      "geometry": {
        "type": "Point",
        "coordinates": [
          -118.216242,
          34.050086
        ]
      },
      "properties": {
        "title": "White Memorial S.D.A. Church",
        "address": "401 N. State Street",
        "address2": "Los Angeles, CA 90033",
        "phone": "323 264-2170",
        "description": "1st & 3rd Tuesday 10:00 AM - 12:00 PM"
      }
    },
    {
      "type": "Feature",
      "geometry": {
        "type": "Point",
        "coordinates": [
          -118.215153,
          34.051639
        ]
      },
      "properties": {
        "title": "Spanish American S.D.A. Church",
        "address": "1815 E. Bridge Street",
        "address2": "Los Angeles, CA 90033",
        "phone": "323.222.7063",
        "description": "2nd & 4th Wednesday 5:00 PM - 6:30 PM"
      }
    },
    {
      "type": "Feature",
      "geometry": {
        "type": "Point",
        "coordinates": [
          -118.180948,
          33.974286
        ]
      },
      "properties": {
        "title": "Principe de Paz",
        "address": "6706 Vinevale Avenue",
        "address2": "Bell, CA 90201",
        "phone": "323.560.3780",
        "description": "2nd & 4th Thursday 11:00 AM - 1:00 PM"
      }
    },
    {
      "type": "Feature",
      "geometry": {
        "type": "Point",
        "coordinates": [
          -118.125183,
          34.06164
        ]
      },
      "properties": {
        "title": "St. Stephen&#8217;s Community Outreach Program",
        "address": "122 Ramona Avenue",
        "address2": "Monterey Park, CA 91754",
        "phone": "626.573.9984",
        "description": "Saturday 9:30 AM - 12:00pm (Seniors Only Distribution 4th Saturday 12:00 PM - 1:00 PM)"
      }
    },
    {
      "type": "Feature",
      "geometry": {
        "type": "Point",
        "coordinates": [
          -118.150714,
          33.9679
        ]
      },
      "properties": {
        "title": "St. Gertrudes Conference",
        "address": "7025 Garfield Avenue",
        "address2": "Bell Gardens, CA 90201",
        "phone": "562.927.4495",
        "description": "2nd & 4th Friday 9:00 AM - 10:00 AM"
      }
    },
    {
      "type": "Feature",
      "geometry": {
        "type": "Point",
        "coordinates": [
          -118.216386,
          33.981447
        ]
      },
      "properties": {
        "title": "Salvation Army Southeast Comm. Corp",
        "address": "2965 E. Gage Avenue",
        "address2": "Huntington Park, CA 90255",
        "phone": "323-587-4221",
        "description": "Tuesday 10:00 AM-11:00 AM & Thursday 10:00 AM-11:00 AM/2:00 PM - 4:00 PM"
      }
    },
    {
      "type": "Feature",
      "geometry": {
        "type": "Point",
        "coordinates": [
          -117.934694,
          34.085602
        ]
      },
      "properties": {
        "title": "Bethany Church",
        "address": "763 N. Sunset Avenue",
        "address2": "West Covina, CA 91790",
        "phone": "626.962.8501",
        "description": "3rd Saturday 9:00 AM-10:30 AM"
      }
    },
    {
      "type": "Feature",
      "geometry": {
        "type": "Point",
        "coordinates": [
          -117.933962,
          34.049857
        ]
      },
      "properties": {
        "title": "Servants Arms Community Based Organization",
        "address": "1720 N. Walnut Avenue",
        "address2": "La Puente, CA 91744",
        "phone": "626.918.3227",
        "description": "2nd & 4th Thursday 3:00 PM - 6:00 PM"
      }
    },
    {
      "type": "Feature",
      "geometry": {
        "type": "Point",
        "coordinates": [
          -117.946913,
          34.049918
        ]
      },
      "properties": {
        "title": "C.A.R.E. Heglis",
        "address": "1633 N. Hacienda Boulevard",
        "address2": "La Puente, CA 91744",
        "phone": "626.715.5653",
        "description": "3rd Friday 10:30am-12:00pm (Senior Only Distribution 3rd Friday 9:30 AM - 10:30 AM)"
      }
    },
    {
      "type": "Feature",
      "geometry": {
        "type": "Point",
        "coordinates": [
          -117.969409,
          34.085102
        ]
      },
      "properties": {
        "title": "Baldwin Park Bilingual S.D.A. Church",
        "address": "13965 East Ramona Parkway",
        "address2": "Baldwin Park, CA 91706",
        "phone": "626 338-4828",
        "description": "Wednesday 6:30 PM - 7:30 PM, Except 5th Wednesday"
      }
    },
    {
      "type": "Feature",
      "geometry": {
        "type": "Point",
        "coordinates": [
          -117.976656,
          34.080437
        ]
      },
      "properties": {
        "title": "Church of the Redeemer",
        "address": "3739 North Monterey Avenue",
        "address2": "Baldwin Park, CA 91706",
        "phone": "626.960.9585",
        "description": "Last Saturday 7:00 AM - 9:00 AM"
      }
    },
    {
      "type": "Feature",
      "geometry": {
        "type": "Point",
        "coordinates": [
          -117.898621,
          34.080021
        ]
      },
      "properties": {
        "title": "Iglesia de Cristo Elim",
        "address": "550 S. Hollenbeck Ave.",
        "address2": "Covina, CA 91723",
        "phone": "323.207.0356",
        "description": "Saturday 8:00 AM - 9:00 AM"
      }
    },
    {
      "type": "Feature",
      "geometry": {
        "type": "Point",
        "coordinates": [
          -117.909734,
          34.094701
        ]
      },
      "properties": {
        "title": "God&#8217;s Pantry",
        "address": "1016 w. Cypress St.",
        "address2": "Covina, CA 91722",
        "phone": "909.455.4531",
        "description": "4th Saturday 8:30-11:30 AM"
      }
    },
    {
      "type": "Feature",
      "geometry": {
        "type": "Point",
        "coordinates": [
          -117.989376,
          34.078984
        ]
      },
      "properties": {
        "title": "Cory&#8217;s Kitchen-New Beginnings",
        "address": "13020 Francisquito Avenue, Suite 10",
        "address2": "Baldwin Park, CA 91706",
        "phone": "626.305.0392",
        "description": "Friday 5:00-7:00 PM"
      }
    },
    {
      "type": "Feature",
      "geometry": {
        "type": "Point",
        "coordinates": [
          -117.950757,
          34.026354
        ]
      },
      "properties": {
        "title": "First United Methodist Church of La Puente",
        "address": "15701 E. Hill Street",
        "address2": "La Puente, CA 91744",
        "phone": "626.968.9394",
        "description": "Last Sunday 10:00 AM - 12:30 PM"
      }
    },
    {
      "type": "Feature",
      "geometry": {
        "type": "Point",
        "coordinates": [
          -117.887641,
          34.089634
        ]
      },
      "properties": {
        "title": "Project 29:11, A Community Development Corporation",
        "address": "418 N. Second Avenue",
        "address2": "Covina, CA 91723",
        "phone": "626.373.2976",
        "description": "Tuesday and Friday 2:00 PM-5:00 PM"
      }
    },
    {
      "type": "Feature",
      "geometry": {
        "type": "Point",
        "coordinates": [
          -117.997428,
          34.043247
        ]
      },
      "properties": {
        "title": "Vision de Cristo Ministerio Kairos",
        "address": "371 Workman Mill Road",
        "address2": "La Puente, CA 91746",
        "phone": "626.367.0690",
        "description": "Saturday 9:00-10:30 AM"
      }
    },
    {
      "type": "Feature",
      "geometry": {
        "type": "Point",
        "coordinates": [
          -117.974691,
          34.114613
        ]
      },
      "properties": {
        "title": "Cory&#8217;s Kitchen",
        "address": "1418 Arrow Highway",
        "address2": "Irwindale, CA 91706",
        "phone": "626.305.0392",
        "description": "Tuesday 5:30-7:30 PM"
      }
    },
    {
      "type": "Feature",
      "geometry": {
        "type": "Point",
        "coordinates": [
          -117.974691,
          34.114613
        ]
      },
      "properties": {
        "title": "Shepherds Pantry",
        "address": "1418 Arrow Highway",
        "address2": "Irwindale, CA 91706",
        "phone": "626.305.0392",
        "description": "Tuesday 5:00-7:00 PM"
      }
    },
    {
      "type": "Feature",
      "geometry": {
        "type": "Point",
        "coordinates": [
          -117.999156,
          34.043573
        ]
      },
      "properties": {
        "title": "MFP-Evergreen Baptist Church of San Gabriel Valley",
        "address": "323 Workman Mill Road",
        "address2": "La Puente, CA 91746",
        "phone": "626.363.0300",
        "description": "1st & 3rd Friday 10:00 AM-12:00 PM"
      }
    },
    {
      "type": "Feature",
      "geometry": {
        "type": "Point",
        "coordinates": [
          -117.882114,
          34.114871
        ]
      },
      "properties": {
        "title": "Village Covenant",
        "address": "5607 N. Barranca Avenue",
        "address2": "Azusa, CA 91702",
        "phone": "626-335-4013",
        "description": "Friday 9:00 AM - 1:00 PM"
      }
    },
    {
      "type": "Feature",
      "geometry": {
        "type": "Point",
        "coordinates": [
          -117.898586,
          34.125536
        ]
      },
      "properties": {
        "title": "Gods Pantry",
        "address": "240 N. Cerritos Ave.",
        "address2": "Azusa, CA 91702",
        "phone": "909.455.4531",
        "description": "2nd Saturday 7:30 AM - 12:00 PM"
      }
    },
    {
      "type": "Feature",
      "geometry": {
        "type": "Point",
        "coordinates": [
          -118.015475,
          34.08787
        ]
      },
      "properties": {
        "title": "San Gabriel Valley Family Center",
        "address": "4602 N. Peck Road",
        "address2": "El Monte, CA 91732",
        "phone": "626.442.5470",
        "description": "Thursday 2:00 PM- 4:00 PM"
      }
    },
    {
      "type": "Feature",
      "geometry": {
        "type": "Point",
        "coordinates": [
          -117.908835,
          34.006811
        ]
      },
      "properties": {
        "title": "La Puente Spanish S.D.A. Church",
        "address": "18047 Valley Boulevard",
        "address2": "La Puente, CA 91744",
        "phone": "626.824.9285",
        "description": "Tuesday 8:30 PM - 9:00 PM"
      }
    },
    {
      "type": "Feature",
      "geometry": {
        "type": "Point",
        "coordinates": [
          -117.980451,
          34.011263
        ]
      },
      "properties": {
        "title": "St. John Vianney Church",
        "address": "1345 Turnbull Canyon Road",
        "address2": "Hacienda Heights, CA 91745",
        "phone": "626-330-2269",
        "description": "Saturday 9:00 AM - 12:00 PM"
      }
    },
    {
      "type": "Feature",
      "geometry": {
        "type": "Point",
        "coordinates": [
          -118.191642,
          33.784066
        ]
      },
      "properties": {
        "title": "Catholic Charities of Long Beach",
        "address": "123 East 14th Street",
        "address2": "Long Beach, CA 90813",
        "phone": "562.591.1641",
        "description": "Tuesday & Thursday 9:30 AM - 12:00 PM & 1:30 PM - 3:00 PM"
      }
    },
    {
      "type": "Feature",
      "geometry": {
        "type": "Point",
        "coordinates": [
          -118.192732,
          33.787467
        ]
      },
      "properties": {
        "title": "Long Beach Lutheran Social Services",
        "address": "1611 Pine Avenue",
        "address2": "Long Beach, CA 90813",
        "phone": "562.599.1321",
        "description": "Monday - Thursday 10:00 AM - 12:00 PM & 12:30 PM - 2:00 PM"
      }
    },
    {
      "type": "Feature",
      "geometry": {
        "type": "Point",
        "coordinates": [
          -118.17439,
          33.786792
        ]
      },
      "properties": {
        "title": "Christ the Good Shepherd",
        "address": "1535 Gundry Avenue",
        "address2": "Long Beach, CA 90813",
        "phone": "562.674.0288",
        "description": "Friday 9:00 AM - 12:00 PM"
      }
    },
    {
      "type": "Feature",
      "geometry": {
        "type": "Point",
        "coordinates": [
          -118.18529,
          33.796319
        ]
      },
      "properties": {
        "title": "Filipino Baptist Fellowship of Long Beach",
        "address": "2155 Atlantic Avenue",
        "address2": "Long Beach, CA 90806",
        "phone": "310.212.5175",
        "description": "3rd Saturday 10:00 AM - 1:00 PM"
      }
    },
    {
      "type": "Feature",
      "geometry": {
        "type": "Point",
        "coordinates": [
          -118.222509,
          33.823955
        ]
      },
      "properties": {
        "title": "Harbor Baptist Church",
        "address": "2300 W. Wardlow Road",
        "address2": "Long Beach, CA 90810",
        "phone": "562.427.8046",
        "description": "Thursday 10:30 AM - 12:00 PM"
      }
    },
    {
      "type": "Feature",
      "geometry": {
        "type": "Point",
        "coordinates": [
          -118.262896,
          33.783934
        ]
      },
      "properties": {
        "title": "Nuevo Amanecer",
        "address": "1035 N. Avalon Boulevard",
        "address2": "Wilmington, CA 90744",
        "phone": "310.847.6937",
        "description": "1st & 3rd Saturday 10:00 AM - 11:00 AM"
      }
    },
    {
      "type": "Feature",
      "geometry": {
        "type": "Point",
        "coordinates": [
          -118.267988,
          33.782344
        ]
      },
      "properties": {
        "title": "St. Peter and Paul Poverty Program",
        "address": "943 Lagoon Avenue",
        "address2": "Wilmington, CA 90744",
        "phone": "310.952.0144",
        "description": "Monday, Tuesday, Thursday 9:00 AM - 11:00 AM"
      }
    },
    {
      "type": "Feature",
      "geometry": {
        "type": "Point",
        "coordinates": [
          -118.274817,
          33.795033
        ]
      },
      "properties": {
        "title": "Harbor Christian Center",
        "address": "1602 N. Wilmington Blvd",
        "address2": "Wilmington, CA 90744",
        "phone": "310.835.5661",
        "description": "4th Saturday 11:00 AM-1:30 PM"
      }
    },
    {
      "type": "Feature",
      "geometry": {
        "type": "Point",
        "coordinates": [
          -118.121366,
          33.819743
        ]
      },
      "properties": {
        "title": "First Southern Baptist Church of Long Beach",
        "address": "3435 San Anseline Avenue",
        "address2": "Long Beach, CA 90808",
        "phone": "562.531.2925",
        "description": "3rd Saturday 10:00 AM - 12:00 PM"
      }
    },
    {
      "type": "Feature",
      "geometry": {
        "type": "Point",
        "coordinates": [
          -118.121366,
          33.819743
        ]
      },
      "properties": {
        "title": "Truett Memorial Southern Baptist Church",
        "address": "3435 San Anseline Avenue",
        "address2": "Long Beach, CA 90808",
        "phone": "562.425.1235",
        "description": "Monday, Tuesday & Thursday 10:30 AM-11:30 AM & Wednesday, Saturday 10:00 AM-11:00 AM"
      }
    },
    {
      "type": "Feature",
      "geometry": {
        "type": "Point",
        "coordinates": [
          -118.262002,
          33.824417
        ]
      },
      "properties": {
        "title": "Jesus Christ the Redeemer Center",
        "address": "755 E. 223rd Street",
        "address2": "Carson, CA 90745",
        "phone": "424.264.9875",
        "description": "Saturday 11:00 AM - 11:30 AM, Except Last Saturday"
      }
    },
    {
      "type": "Feature",
      "geometry": {
        "type": "Point",
        "coordinates": [
          -118.181868,
          33.849011
        ]
      },
      "properties": {
        "title": "Women In Action Reaching Out",
        "address": "851 Via Carmelitos",
        "address2": "Long Beach, CA 90805",
        "phone": "562.253.8078",
        "description": "Thursday 9:00 AM-10:00 AM"
      }
    },
    {
      "type": "Feature",
      "geometry": {
        "type": "Point",
        "coordinates": [
          -118.289616,
          33.797371
        ]
      },
      "properties": {
        "title": "Salvation Army &#8211; Stillman Sawyer Family Services",
        "address": "820 Lomita Blvd.",
        "address2": "Harbor City, CA 90710",
        "phone": "310.370.4515",
        "description": "Monday - Friday 9:30 AM-12:30 PM"
      }
    },
    {
      "type": "Feature",
      "geometry": {
        "type": "Point",
        "coordinates": [
          -118.293804,
          33.741255
        ]
      },
      "properties": {
        "title": "Food Net-San Pedro Service Center",
        "address": "769 W. Third Street",
        "address2": "San Pedro, CA 90731",
        "phone": "310-519-6091",
        "description": "Tuesday - Friday 2:00 PM - 4:30 PM"
      }
    },
    {
      "type": "Feature",
      "geometry": {
        "type": "Point",
        "coordinates": [
          -118.29674,
          33.796561
        ]
      },
      "properties": {
        "title": "Jesus is the Answer Apostolic Church",
        "address": "25100 S. Normandie Ave, Suite A",
        "address2": "Harbor City, CA 90710",
        "phone": "310.667.0147",
        "description": "3rd Wednesday 12:00 PM - 4:00 PM"
      }
    },
    {
      "type": "Feature",
      "geometry": {
        "type": "Point",
        "coordinates": [
          -118.299823,
          33.74818
        ]
      },
      "properties": {
        "title": "Justice for Murdered Children",
        "address": "1039 Elberon Ave",
        "address2": "San Pedro, CA 90732",
        "phone": "310.738.4218",
        "description": "2nd & 4th Saturday 1:00 PM-3:00 PM"
      }
    },
    {
      "type": "Feature",
      "geometry": {
        "type": "Point",
        "coordinates": [
          -118.298613,
          33.742681
        ]
      },
      "properties": {
        "title": "San Pedro Temple Corps",
        "address": "138 S. Bandini Street",
        "address2": "San Pedro, CA 90731",
        "phone": "310-832-7228",
        "description": "Friday 9:00 AM - 12:00 PM"
      }
    },
    {
      "type": "Feature",
      "geometry": {
        "type": "Point",
        "coordinates": [
          -118.291008,
          33.813478
        ]
      },
      "properties": {
        "title": "Vermont Avenue Baptist Church",
        "address": "23325 S. Vermont Ave.",
        "address2": "Torrance, CA 90502",
        "phone": "310.530.0533",
        "description": "3rd Saturday 10:00 AM - 1:00 PM"
      }
    },
    {
      "type": "Feature",
      "geometry": {
        "type": "Point",
        "coordinates": [
          -118.286487,
          33.828376
        ]
      },
      "properties": {
        "title": "Finger of God Goodnews Ministry",
        "address": "21919 S. Figueroa Street",
        "address2": "Carson, CA 90745",
        "phone": "323.719.0290",
        "description": "2nd & Last Saturday 10:00 AM-11:00 PM"
      }
    },
    {
      "type": "Feature",
      "geometry": {
        "type": "Point",
        "coordinates": [
          -118.309048,
          33.738058
        ]
      },
      "properties": {
        "title": "Trinity Pantry Ministry",
        "address": "1450 West 7th Street",
        "address2": "San Pedro, CA 90732",
        "phone": "310.742.3279",
        "description": "Sunday 8:30 AM-9:15 AM & 12:00 PM-1:00 PM"
      }
    },
    {
      "type": "Feature",
      "geometry": {
        "type": "Point",
        "coordinates": [
          -118.317793,
          33.792002
        ]
      },
      "properties": {
        "title": "His Helping Hands",
        "address": "25501 Oak Street",
        "address2": "Lomita, CA 90717",
        "phone": "310.326.2757",
        "description": "Thursday 6:00 PM-7:00 PM"
      }
    },
    {
      "type": "Feature",
      "geometry": {
        "type": "Point",
        "coordinates": [
          -118.224259,
          33.874934
        ]
      },
      "properties": {
        "title": "Centro Palabra de Fe",
        "address": "107 W. Artesia Boulevard",
        "address2": "Compton, CA 90220",
        "phone": "310-632-7337",
        "description": "Last Saturday 7:30 PM - 8:30 PM"
      }
    },
    {
      "type": "Feature",
      "geometry": {
        "type": "Point",
        "coordinates": [
          -118.326068,
          33.789358
        ]
      },
      "properties": {
        "title": "Hope Chapel Foursquare Church",
        "address": "2420 Pacific Coast Highway",
        "address2": "Hermosa Beach, CA 90254",
        "phone": "310.374.4673",
        "description": "Wednesday & Friday 9:00 AM -12:00 PM & 1:00 PM - 4:00 PM"
      }
    },
    {
      "type": "Feature",
      "geometry": {
        "type": "Point",
        "coordinates": [
          -118.127515,
          33.87081
        ]
      },
      "properties": {
        "title": "Salvation Army &#8211; Bellflower Temple Corps",
        "address": "9664 Cedar St.",
        "address2": "Bellflower, CA 90706",
        "phone": "562.804.0808",
        "description": "Monday - Friday 11:00 AM-12:30 PM"
      }
    },
    {
      "type": "Feature",
      "geometry": {
        "type": "Point",
        "coordinates": [
          -118.072144,
          33.827096
        ]
      },
      "properties": {
        "title": "Hawaiian Gardens Food Bank",
        "address": "22121 Norwalk Blvd.",
        "address2": "Hawaiian Gardens, CA 90716",
        "phone": "562.860.9097",
        "description": "Wednesday 2:00 PM - 6:00 PM & Thursday 9:30 AM - 3:30 PM"
      }
    },
    {
      "type": "Feature",
      "geometry": {
        "type": "Point",
        "coordinates": [
          -117.994706,
          33.912551
        ]
      },
      "properties": {
        "title": "Good Sam Pantry/Beatitudes of our Lord",
        "address": "13013 Santa Gertrudes Ave.",
        "address2": "La Mirada, CA 90638",
        "phone": "562.943.1521",
        "description": "Thursday 4:30 PM - 5:30 PM"
      }
    },
    {
      "type": "Feature",
      "geometry": {
        "type": "Point",
        "coordinates": [
          -117.995284,
          33.915696
        ]
      },
      "properties": {
        "title": "Grace Evangelical Free Church of La Mirada",
        "address": "12717 Santa Gertrudes Avenue",
        "address2": "La Mirada, CA 90638",
        "phone": "562.943.3791",
        "description": "Friday 4:00 PM - 6:00 PM"
      }
    },
    {
      "type": "Feature",
      "geometry": {
        "type": "Point",
        "coordinates": [
          -117.984331,
          33.932911
        ]
      },
      "properties": {
        "title": "Morningstar Christian Chapel",
        "address": "16241 Leffingwell Road",
        "address2": "Whittier, CA 90603",
        "phone": "562.943.0297",
        "description": "Tuesday 9:30 AM - 11:30 AM"
      }
    },
    {
      "type": "Feature",
      "geometry": {
        "type": "Point",
        "coordinates": [
          -117.927372,
          33.950041
        ]
      },
      "properties": {
        "title": "La Habra Christian Church",
        "address": "1400 Bella Vista Drive",
        "address2": "La Habra Heights, CA 90631",
        "phone": "562.691.0514",
        "description": "4th Saturday 9:00 AM-11:00 AM"
      }
    },
    {
      "type": "Feature",
      "geometry": {
        "type": "Point",
        "coordinates": [
          -118.032103,
          33.9093
        ]
      },
      "properties": {
        "title": "St. Paul of the Cross Church",
        "address": "14020 Foster Road",
        "address2": "La Mirada, CA 90638",
        "phone": "562.921.2914",
        "description": "Tuesday 11:00 AM - 12:30 PM"
      }
    },
    {
      "type": "Feature",
      "geometry": {
        "type": "Point",
        "coordinates": [
          -118.032103,
          33.9093
        ]
      },
      "properties": {
        "title": "St. Paul of the Cross Church",
        "address": "14020 Foster Road",
        "address2": "La Mirada, CA 90638",
        "phone": "562.921.2914",
        "description": "Tuesday 11:00 AM - 12:30 PM"
      }
    },
    {
      "type": "Feature",
      "geometry": {
        "type": "Point",
        "coordinates": [
          -118.066222,
          33.832874
        ]
      },
      "properties": {
        "title": "Lawrence Ministries",
        "address": "12441 E. Farlow Street",
        "address2": "Hawaiian Gardens, CA 90716",
        "phone": "310.764.4104",
        "description": "3rd Saturday 10:00 AM - 2:00 PM"
      }
    },
    {
      "type": "Feature",
      "geometry": {
        "type": "Point",
        "coordinates": [
          -118.048477,
          33.898439
        ]
      },
      "properties": {
        "title": "Adonai SDA Church",
        "address": "13246 Mapledale Street",
        "address2": "Norwalk, CA 90650",
        "phone": "562.480.8181",
        "description": "1st & 3rd Saturday 4:00-6:00 PM"
      }
    },
    {
      "type": "Feature",
      "geometry": {
        "type": "Point",
        "coordinates": [
          -118.071344,
          33.846469
        ]
      },
      "properties": {
        "title": "Crossroads Multinational Church of the Nazarene",
        "address": "12229 E. Del Amo Blvd",
        "address2": "Cerritos, CA 90703",
        "phone": "562.809.4143",
        "description": "Sunday 8:30 AM- 9:45 AM & 3:00 PM-4:00 PM"
      }
    },
    {
      "type": "Feature",
      "geometry": {
        "type": "Point",
        "coordinates": [
          -118.03455,
          33.932435
        ]
      },
      "properties": {
        "title": "St. Gregory the Great Church",
        "address": "13935 Telegraph Road",
        "address2": "Whittier, CA 90604",
        "phone": "562.777.2475",
        "description": "Tuesday-Thursday 10:00 AM-2:00 PM"
      }
    },
    {
      "type": "Feature",
      "geometry": {
        "type": "Point",
        "coordinates": [
          -118.046945,
          33.927733
        ]
      },
      "properties": {
        "title": "Catholic Rainbow Outreach",
        "address": "11419 Carmenita Road",
        "address2": "Whittier, CA 90605",
        "phone": "562.897.2095",
        "description": "Monday-Wednesday, Friday 11:00 AM-12:00 PM, 2nd,4th & 5th Saturday 10:30 AM-11:30 AM"
      }
    }
  ]
}